ID,Source,TMC,Severity,Start_Time,End_Time,Start_Lat,Start_Lng,End_Lat,End_Lng,Distance(mi),Description,Number,Street,Side,City,County,State,Zipcode,Country,Timezone,Airport_Code,Weather_Timestamp,Temperature(F),Wind_Chill(F),Humidity(%),Pressure(in),Visibility(mi),Wind_Direction,Wind_Speed(mph),Precipitation(in),Weather_Condition,Amenity,Bump,Crossing,Give_Way,Junction,No_Exit,Railway,Roundabout,Station,Stop,Traffic_Calming,Traffic_Signal,Turning_Loop,Sunrise_Sunset,Civil_Twilight,Nautical_Twilight,Astronomical_Twilight,random
A-17088,MapQuest,201,2,11/16/2016 13:35,11/16/2016 14:04,37.699444,-122.053902,,,0.01,Accident on Crow Canyon Rd at Beacon Hill Dr.,4701,Beacon Hill Dr,R,Castro Valley,Alameda,CA,94552-3704,US,US/Pacific,KHWD,11/16/2016 13:54,61,,44,30.08,10,West,16.1,,Clear,FALSE,FALSE,FALSE,FALSE,FALSE,FALSE,FALSE,FALSE,FALSE,FALSE,FALSE,FALSE,FALSE,Day,Day,Day,Day,0.515640419
A-32403,MapQuest,201,2,3/31/2016 17:34,3/31/2016 18:19,37.786705,-122.19603,,,0,Accident on High St at Redding St.,,High St,R,Oakland,Alameda,CA,94619,US,US/Pacific,KOAK,3/31/2016 17:53,61,,64,30.12,10,West,25.3,,Partly Cloudy,FALSE,FALSE,FALSE,FALSE,TRUE,FALSE,FALSE,FALSE,FALSE,FALSE,FALSE,TRUE,FALSE,Day,Day,Day,Day,0.963077214
A-6779,MapQuest,201,3,12/11/2016 22:06,12/11/2016 22:35,37.687485,-122.133484,,,0.01,Accident on I-238 Northbound at Exits 16A 16B I-880.,,Nimitz Fwy S,R,San Leandro,Alameda,CA,94579,US,US/Pacific,KHWD,12/11/2016 21:54,50,,74,30.19,10,ENE,3.5,,Clear,FALSE,FALSE,FALSE,FALSE,FALSE,FALSE,FALSE,FALSE,FALSE,FALSE,FALSE,FALSE,FALSE,Night,Night,Night,Night,0.083364191
A-17658,MapQuest,201,3,11/18/2016 23:52,11/19/2016 0:21,37.912777,-122.066925,,,0.01,Accident on I-680 Northbound at Exit 46 Hillside Ave.,,I-680 N,R,Walnut Creek,Contra Costa,CA,94597,US,US/Pacific,KCCR,11/18/2016 23:53,48.9,,59,29.9,10,Calm,,,Clear,FALSE,FALSE,FALSE,FALSE,FALSE,FALSE,FALSE,FALSE,FALSE,FALSE,FALSE,FALSE,FALSE,Night,Night,Night,Night,0.390759348
A-26952,MapQuest,201,3,8/12/2016 10:35,8/12/2016 11:05,38.210506,-122.147026,,,0,Slow lane blocked due to accident on I-80 Westbound at Exit 39B CA-12.,,I-80 W,R,Fairfield,Solano,CA,94534,US,US/Pacific,KAPC,8/12/2016 10:54,64,,73,30.03,10,SSW,8.1,,Partly Cloudy,FALSE,FALSE,FALSE,FALSE,FALSE,FALSE,FALSE,FALSE,FALSE,FALSE,FALSE,FALSE,FALSE,Day,Day,Day,Day,0.758273251
A-32437,MapQuest,201,3,3/31/2016 20:49,3/31/2016 21:49,38.117683,-122.564941,,,0,Very slow traffic due to accident on US-101 Redwood Hwy Northbound after Exit 463 Atherton Ave.,1006,Atherton Ave,L,Novato,Marin,CA,94945,US,US/Pacific,KDVO,3/31/2016 20:55,53.6,,77,30.1,10,SSW,11.5,,Clear,TRUE,FALSE,FALSE,FALSE,FALSE,FALSE,FALSE,FALSE,FALSE,FALSE,FALSE,FALSE,FALSE,Night,Night,Night,Day,0.090971219
A-14191,MapQuest,201,3,10/31/2016 11:43,10/31/2016 12:42,38.630722,-121.401489,,,0.01,Right hand shoulder blocked due to accident on I-80 Bus Capital City Fwy Southbound before Exits 12 12C Fulton Ave.,,Fulton Ave,R,Sacramento,Sacramento,CA,95821,US,US/Pacific,KMCC,10/31/2016 11:35,60.8,,68,30.11,9,SSW,6.9,,Scattered Clouds,FALSE,FALSE,FALSE,FALSE,FALSE,FALSE,FALSE,FALSE,FALSE,FALSE,FALSE,FALSE,FALSE,Day,Day,Day,Day,0.968915863
A-18113,MapQuest,201,3,11/22/2016 11:41,11/22/2016 12:11,37.719162,-122.448273,,,0.01,Right hand shoulder blocked due to accident on I-280 Northbound at Geneva Ave.,,John F Foran Fwy,R,San Francisco,San Francisco,CA,94112,US,US/Pacific,KSFO,11/22/2016 11:56,59,,72,30.18,10,ENE,5.8,,Mostly Cloudy,FALSE,FALSE,FALSE,FALSE,FALSE,FALSE,FALSE,FALSE,FALSE,FALSE,FALSE,FALSE,FALSE,Day,Day,Day,Day,0.975859997
A-10877,MapQuest,201,2,1/12/2017 12:21,1/12/2017 12:50,37.38596,-121.977364,,,0.01,Shoulder blocked on entry ramp due to accident on US-101 Northbound at Exit 393 Great America Pkwy.,,US-101 N,R,Santa Clara,Santa Clara,CA,95054,US,US/Pacific,KSJC,1/12/2017 11:53,50,,74,29.94,10,NNW,9.2,,Overcast,FALSE,FALSE,FALSE,FALSE,FALSE,FALSE,FALSE,FALSE,FALSE,FALSE,FALSE,FALSE,FALSE,Day,Day,Day,Day,0.133773979
A-10288,MapQuest,201,2,1/8/2017 10:11,1/8/2017 10:41,39.11451,-121.000992,,,0,Accident on Dog Bar Rd both ways at Taylor Crossing Rd.,14401,Taylor Crossing Rd,R,Grass Valley,Nevada,CA,95949-9583,US,US/Pacific,KGOO,1/8/2017 10:15,51.8,,100,29.9,1,South,10.4,,Overcast,FALSE,FALSE,FALSE,FALSE,FALSE,FALSE,FALSE,FALSE,FALSE,FALSE,FALSE,FALSE,FALSE,Day,Day,Day,Day,0.195177965
A-23256,MapQuest,201,3,10/5/2016 12:19,10/5/2016 13:19,37.891441,-122.061424,,,0,Accident on I-680 Westbound at Exits 45B 46A 46B CA-24.,,I-680 N,R,Walnut Creek,Contra Costa,CA,94596,US,US/Pacific,KCCR,10/5/2016 11:53,70,,31,30.04,10,NNW,8.1,,Clear,FALSE,FALSE,FALSE,FALSE,FALSE,FALSE,FALSE,FALSE,FALSE,FALSE,FALSE,FALSE,FALSE,Day,Day,Day,Day,0.199900048
A-9008,MapQuest,201,2,12/29/2016 18:34,12/29/2016 19:03,38.38625,-122.716103,,,0.01,Right lane blocked due to accident on US-101 Southbound after Exit 485 Todd Rd.,,Todd Rd,R,Santa Rosa,Sonoma,CA,95407,US,US/Pacific,KSTS,12/29/2016 18:53,45,,86,30.12,10,Calm,,,Clear,FALSE,FALSE,FALSE,FALSE,FALSE,FALSE,FALSE,FALSE,FALSE,FALSE,FALSE,FALSE,FALSE,Night,Night,Night,Night,0.911233455
A-23088,MapQuest,201,2,10/4/2016 16:36,10/4/2016 17:05,36.513302,-121.437523,,,0,Accident on US-101 El Camino Real Northbound at Exit 311 5th St.,,El Camino Real S,R,Gonzales,Monterey,CA,93926,US,US/Pacific,KSNS,10/4/2016 16:53,64.9,,56,30,9,West,15,,Clear,FALSE,FALSE,FALSE,FALSE,FALSE,FALSE,FALSE,FALSE,FALSE,FALSE,FALSE,FALSE,FALSE,Day,Day,Day,Day,0.586631599
A-30359,MapQuest,201,2,9/7/2016 13:18,9/7/2016 13:48,36.972317,-121.430847,,,0,Accident and fallen power cables on Lovers Ln at CA-152.,5101,Pacheco Pass Hwy,L,Gilroy,Santa Clara,CA,95020,US,US/Pacific,KE16,9/7/2016 13:15,91.4,,20,29.91,10,Calm,,,Light Rain,FALSE,FALSE,FALSE,FALSE,FALSE,FALSE,FALSE,FALSE,FALSE,FALSE,FALSE,FALSE,FALSE,Day,Day,Day,Day,0.071082541
A-7281,MapQuest,241,3,12/15/2016 16:34,12/15/2016 17:04,37.620403,-122.425995,,,0.01,#1 lane blocked due to accident on I-280 Southbound at Exits 43A 43B I-380.,,I-280 S,R,San Bruno,San Mateo,CA,94066,US,US/Pacific,KSFO,12/15/2016 16:31,60.1,,86,29.67,1.5,South,27.6,0.12,Rain,FALSE,FALSE,FALSE,FALSE,TRUE,FALSE,FALSE,FALSE,FALSE,FALSE,FALSE,FALSE,FALSE,Day,Day,Day,Day,0.391776956
A-20732,MapQuest,241,2,9/17/2016 21:30,9/17/2016 22:00,37.214561,-121.987862,,,0,Lane blocked due to accident on CA-17 Santa Cruz Hwy Northbound at CA-17 Santa Cruz Hwy. Expect delays.,,CA-17 N,R,Los Gatos,Santa Clara,CA,95030,US,US/Pacific,KSJC,9/17/2016 21:53,66.9,,66,29.96,10,Calm,,,Partly Cloudy,FALSE,FALSE,FALSE,FALSE,FALSE,FALSE,FALSE,FALSE,FALSE,FALSE,FALSE,FALSE,FALSE,Night,Night,Night,Night,0.963923454
A-28149,MapQuest,201,2,8/21/2016 15:45,8/21/2016 16:30,38.077675,-122.232727,,,0,Accident on I-80 at Exits 29A 29B CA-29.,,I-80 W,R,Vallejo,Solano,CA,94590,US,US/Pacific,KAPC,8/21/2016 15:54,75,,53,29.85,10,SSW,17.3,,Clear,FALSE,FALSE,FALSE,FALSE,FALSE,FALSE,FALSE,FALSE,FALSE,FALSE,FALSE,FALSE,FALSE,Day,Day,Day,Day,0.037399612
A-12914,MapQuest,241,3,10/20/2016 21:34,10/20/2016 22:04,37.344883,-121.92347,,,0.01,Slow lane blocked due to accident on I-880 Northbound at Exit 2 CA-82 The Alameda.,,I-880 N,R,San Jose,Santa Clara,CA,95126,US,US/Pacific,KSJC,10/20/2016 21:53,68,,60,30.02,10,Calm,,,Partly Cloudy,FALSE,FALSE,FALSE,FALSE,FALSE,FALSE,FALSE,FALSE,FALSE,FALSE,FALSE,FALSE,FALSE,Night,Night,Night,Night,0.626291469
A-5369,MapQuest,201,2,12/2/2016 18:24,12/2/2016 18:53,38.287113,-122.118355,,,0.01,Accident on Suisun Valley Rd at Mankas Corner Rd. Intersection Blocked.,2400,Mankas Corner Rd,R,Fairfield,Solano,CA,94534-3132,US,US/Pacific,KAPC,12/2/2016 18:54,57.9,,31,30.16,10,North,16.1,,Clear,FALSE,FALSE,FALSE,FALSE,FALSE,FALSE,FALSE,FALSE,FALSE,FALSE,FALSE,FALSE,FALSE,Night,Night,Night,Night,0.923148081
A-14794,MapQuest,201,2,11/3/2016 11:30,11/3/2016 12:00,38.246502,-122.295471,,,0.01,Accident on CA-29 CA-12 Southbound at CA-121 Sonoma Hwy.,,CA-12,R,Napa,Napa,CA,94559,US,US/Pacific,KAPC,11/3/2016 11:54,69.1,,51,30.17,10,Calm,,,Clear,FALSE,FALSE,FALSE,FALSE,FALSE,FALSE,FALSE,FALSE,FALSE,FALSE,FALSE,FALSE,FALSE,Day,Day,Day,Day,0.842088381
A-27921,MapQuest,201,2,8/18/2016 23:50,8/19/2016 0:20,37.25531,-121.854591,,,0,Accident on CA-85 Southbound at Exits 5A 5B CA-87.,,CA-85 S,R,San Jose,Santa Clara,CA,95123,US,US/Pacific,KRHV,8/18/2016 21:47,68,,68,29.87,10,Calm,,,Clear,FALSE,FALSE,FALSE,FALSE,FALSE,FALSE,FALSE,FALSE,FALSE,FALSE,FALSE,FALSE,FALSE,Night,Night,Night,Night,0.924387206
A-8302,MapQuest,201,3,12/23/2016 9:14,12/23/2016 9:44,37.774387,-122.231316,,,0.01,Right hand shoulder blocked due to accident on I-880 Northbound at Exit 39A Elmwood Ave.,,I-880 N,R,Oakland,Alameda,CA,94601,US,US/Pacific,KOAK,12/23/2016 9:14,50,,89,29.87,10,ESE,12.7,0,Overcast,FALSE,FALSE,FALSE,FALSE,FALSE,FALSE,FALSE,FALSE,FALSE,FALSE,FALSE,FALSE,FALSE,Day,Day,Day,Day,0.536512116
A-36862,MapQuest,201,3,4/29/2016 20:09,4/29/2016 20:54,37.799412,-122.22065,,,0.01,Lane blocked on exit ramp due to accident on I-580 Eastbound at I-580 Exit 23 / Fruitvale Ave.,,I-580 W,R,Oakland,Alameda,CA,94602,US,US/Pacific,KOAK,4/29/2016 19:53,60.1,,62,29.92,10,WNW,17.3,,Mostly Cloudy,FALSE,FALSE,FALSE,FALSE,FALSE,FALSE,FALSE,FALSE,FALSE,FALSE,FALSE,FALSE,FALSE,Night,Day,Day,Day,0.533322382
A-18337,MapQuest,201,2,11/23/2016 11:30,11/23/2016 12:00,37.341072,-121.900093,,,0.01,Accident on CA-87 Guadalupe Pkwy Northbound at Julian St. On the median.,228,Ryland St,L,San Jose,Santa Clara,CA,95110-2276,US,US/Pacific,KSJC,11/23/2016 11:53,61,,50,30.33,10,NNW,8.1,,Scattered Clouds,FALSE,FALSE,FALSE,FALSE,TRUE,FALSE,FALSE,FALSE,FALSE,FALSE,FALSE,FALSE,FALSE,Day,Day,Day,Day,0.75275747
A-33081,MapQuest,201,3,4/5/2016 12:40,4/5/2016 13:10,37.349705,-121.838699,,,0,Right hand shoulder blocked due to accident on I-680 Northbound at Exits 1B 1C Jackson Ave.,,I-680 N,R,San Jose,Santa Clara,CA,95116,US,US/Pacific,KRHV,4/5/2016 12:53,77,,24,30.2,10,Variable,4.6,,Clear,FALSE,FALSE,FALSE,FALSE,FALSE,FALSE,FALSE,FALSE,FALSE,FALSE,FALSE,FALSE,FALSE,Day,Day,Day,Day,0.500150104
A-35363,MapQuest,201,2,4/20/2016 16:49,4/20/2016 18:04,38.588737,-121.401505,,,0.01,Accident on Fulton Ave at Hurley Way.,1301,Fulton Ave,R,Sacramento,Sacramento,CA,95825-3603,US,US/Pacific,KMCC,4/20/2016 16:50,77,,19,29.9,10,SW,10.4,,Clear,FALSE,FALSE,FALSE,FALSE,FALSE,FALSE,FALSE,FALSE,FALSE,FALSE,FALSE,TRUE,FALSE,Day,Day,Day,Day,0.283476436
A-9287,MapQuest,201,2,1/2/2017 18:58,1/2/2017 19:42,36.6978,-121.664246,,,0.01,Shoulder blocked on entry ramp due to accident on Calle del Adobe for US-101.,,W Laurel Dr,R,Salinas,Monterey,CA,93906,US,US/Pacific,KSNS,1/2/2017 18:53,48,,86,30.11,4,East,13.8,,Overcast,FALSE,FALSE,FALSE,FALSE,FALSE,FALSE,FALSE,FALSE,FALSE,FALSE,FALSE,FALSE,FALSE,Night,Night,Night,Night,0.628872663
A-19288,MapQuest,201,2,11/29/2016 14:56,11/29/2016 15:25,37.152908,-121.652679,,,0.01,Right hand shoulder blocked due to accident on US-101 Southbound at Exit 367 Cochrane Rd.,,S Valley Fwy S,R,Morgan Hill,Santa Clara,CA,95037,US,US/Pacific,KE16,11/29/2016 14:55,59,,45,30.12,10,WNW,9.2,,Clear,FALSE,FALSE,FALSE,FALSE,FALSE,FALSE,FALSE,FALSE,FALSE,FALSE,FALSE,FALSE,FALSE,Day,Day,Day,Day,0.449147484
A-4387,MapQuest,201,2,7/27/2016 8:22,7/27/2016 9:07,38.499405,-122.825829,,,0,Accident on Slusser Rd at Laughlin Rd.,4162,Slusser Rd,R,Windsor,Sonoma,CA,95492-9689,US,US/Pacific,KSTS,7/27/2016 7:53,59,,78,29.86,10,Calm,,,Scattered Clouds,FALSE,FALSE,FALSE,FALSE,FALSE,FALSE,FALSE,FALSE,FALSE,FALSE,FALSE,FALSE,FALSE,Day,Day,Day,Day,0.877716335
A-25094,MapQuest,201,3,10/17/2016 13:36,10/17/2016 14:06,37.444252,-122.269119,,,0.01,Accident on I-280 Southbound at Exit 27 Farm Hill Blvd. On the median.,,I-280 S,R,Redwood City,San Mateo,CA,94062,US,US/Pacific,KSQL,10/17/2016 13:58,68,,52,30.06,10,NNW,5.8,,Scattered Clouds,FALSE,FALSE,FALSE,FALSE,FALSE,FALSE,FALSE,FALSE,FALSE,FALSE,FALSE,FALSE,FALSE,Day,Day,Day,Day,0.551565112
A-35657,MapQuest,201,2,4/21/2016 22:20,4/21/2016 23:05,38.947292,-121.101768,,,0,Right hand shoulder blocked due to accident on Quartz Dr at Sapphire Dr.,11628,Quartz Dr,L,Auburn,Placer,CA,95602-2307,US,US/Pacific,KAUN,4/21/2016 22:15,60.8,,63,29.89,10,SSW,6.9,,Overcast,FALSE,FALSE,FALSE,FALSE,FALSE,FALSE,FALSE,FALSE,FALSE,FALSE,FALSE,FALSE,FALSE,Night,Night,Night,Night,0.351726804
A-11875,MapQuest,201,2,1/19/2017 20:16,1/19/2017 21:01,38.500767,-121.217667,,,0.01,Right hand shoulder blocked due to accident on Mitchlen Ct at CA-16 Jackson Rd.,12195,Jackson Rd,L,Sloughhouse,Sacramento,CA,95683-9605,US,US/Pacific,KMHR,1/19/2017 20:45,48.2,,93,29.76,10,SSE,9.2,,Mostly Cloudy,FALSE,FALSE,FALSE,FALSE,FALSE,FALSE,FALSE,FALSE,FALSE,FALSE,FALSE,FALSE,FALSE,Night,Night,Night,Night,0.77050206
A-25302,MapQuest,247,2,10/19/2016 8:40,10/19/2016 9:25,38.470661,-122.88633,,,0.01,Delays due to accident on CA-116 Gravenstein Hwy both ways at Vine Hill Rd.,6188,Gravenstein Hwy N,R,Forestville,Sonoma,CA,95436,US,US/Pacific,KSTS,10/19/2016 8:53,52,,83,30.19,10,WNW,3.5,,Clear,FALSE,FALSE,FALSE,FALSE,FALSE,FALSE,FALSE,FALSE,FALSE,FALSE,FALSE,FALSE,FALSE,Day,Day,Day,Day,0.945901221
A-31991,MapQuest,201,2,3/29/2016 11:49,3/29/2016 12:49,37.936543,-121.29882,,,0,Accident on CA-4 Charter Way at Navy Dr.,733,W Charter Way,R,Stockton,San Joaquin,CA,95206-1101,US,US/Pacific,KSCK,3/29/2016 11:55,60.1,,41,29.88,10,Calm,,,Clear,FALSE,FALSE,FALSE,FALSE,FALSE,FALSE,FALSE,FALSE,FALSE,FALSE,FALSE,FALSE,FALSE,Day,Day,Day,Day,0.996219383
A-25595,MapQuest,201,3,8/2/2016 3:24,8/2/2016 4:24,37.920135,-122.333183,,,0,Right hand shoulder blocked due to accident on I-580 Westbound at Exit 10B Regatta Blvd.,,I-580 E,R,Richmond,Contra Costa,CA,94804,US,US/Pacific,KCCR,8/2/2016 3:53,57.9,,78,29.92,10,West,6.9,,Clear,FALSE,FALSE,FALSE,FALSE,FALSE,FALSE,FALSE,FALSE,FALSE,FALSE,FALSE,FALSE,FALSE,Night,Night,Night,Night,0.440482516
A-5171,MapQuest,201,3,12/1/2016 11:43,12/1/2016 12:12,37.959778,-122.330673,,,0.01,Lane blocked on exit ramp due to accident on I-80 Westbound at Exit 18 San Pablo Dam Rd.,,I-80 W,R,San Pablo,Contra Costa,CA,94806,US,US/Pacific,KCCR,12/1/2016 11:53,59,,36,30.08,10,North,4.6,,Clear,FALSE,FALSE,FALSE,FALSE,FALSE,FALSE,FALSE,FALSE,FALSE,FALSE,FALSE,FALSE,FALSE,Day,Day,Day,Day,0.548895878
A-7588,MapQuest,201,3,12/17/2016 19:13,12/17/2016 19:43,38.505337,-121.785492,,,0.01,Accident on I-80 Westbound at Exit 69 Kidwell Rd.,,CA-113 N,R,Dixon,Solano,CA,95620,US,US/Pacific,KEDU,12/17/2016 19:15,37.4,,81,30.33,10,Calm,,,Clear,FALSE,FALSE,FALSE,FALSE,FALSE,FALSE,FALSE,FALSE,FALSE,FALSE,FALSE,FALSE,FALSE,Night,Night,Night,Night,0.123570081
A-5478,MapQuest,201,2,12/3/2016 16:11,12/3/2016 16:50,37.407047,-122.063148,,,0.01,Accident on US-101 Northbound at Exits 398 398A Moffett Blvd.,,US-101 N,R,Mountain View,Santa Clara,CA,94043,US,US/Pacific,KNUQ,12/3/2016 15:56,60.1,,42,30.19,10,NNW,5.8,,Clear,FALSE,FALSE,FALSE,FALSE,FALSE,FALSE,FALSE,FALSE,FALSE,FALSE,FALSE,FALSE,FALSE,Day,Day,Day,Day,0.047141795
A-38324,MapQuest,201,2,5/12/2016 10:06,5/12/2016 10:36,37.27877,-121.806313,,,0.01,Right hand shoulder blocked due to accident on US-101 Northbound at Exit 380 Hellyer Ave.,,US-101 N,R,San Jose,Santa Clara,CA,95138,US,US/Pacific,KRHV,5/12/2016 10:20,64.4,,68,30.07,4,Variable,5.8,,Mostly Cloudy,FALSE,FALSE,FALSE,FALSE,TRUE,FALSE,FALSE,FALSE,FALSE,FALSE,FALSE,FALSE,FALSE,Day,Day,Day,Day,0.023545413
A-329,MapQuest,201,2,2/22/2016 16:57,2/22/2016 17:57,39.630444,-84.196266,,,0,Accident on Washington Village Dr at OH-725 Miamisburg Centerville Rd.,,Washington Village Dr,R,Dayton,Montgomery,OH,45459,US,US/Eastern,KMGY,2/22/2016 16:53,48,,50,30.06,10,ENE,5.8,,Clear,FALSE,FALSE,FALSE,FALSE,FALSE,FALSE,FALSE,FALSE,FALSE,FALSE,FALSE,FALSE,FALSE,Day,Day,Day,Day,0.572595674
A-27020,MapQuest,201,3,8/12/2016 18:06,8/12/2016 18:51,37.334507,-122.027931,,,0,#3 lane blocked due to accident on I-280 Northbound at Exit 11 De Anza Blvd.,,Junipero Serra Fwy N,R,Cupertino,Santa Clara,CA,95014,US,US/Pacific,KNUQ,8/12/2016 17:56,73,,59,29.99,10,NNW,9.2,,Clear,FALSE,FALSE,FALSE,FALSE,FALSE,FALSE,FALSE,FALSE,FALSE,FALSE,FALSE,FALSE,FALSE,Day,Day,Day,Day,0.534811059
A-17068,MapQuest,201,3,11/16/2016 11:52,11/16/2016 12:22,37.889572,-122.058487,,,0.01,Accident on I-680 Southbound at Exits 45B 46A 46B CA-24. On the median.,,I-680 S,R,Walnut Creek,Contra Costa,CA,94596,US,US/Pacific,KCCR,11/16/2016 11:53,61,,41,30.04,10,WNW,16.1,,,FALSE,FALSE,FALSE,FALSE,FALSE,FALSE,FALSE,FALSE,FALSE,FALSE,FALSE,FALSE,FALSE,Day,Day,Day,Day,0.797575444
A-3749,MapQuest,222,2,7/21/2016 21:58,7/21/2016 23:13,38.632729,-121.21875,,,0,Queueing traffic due to accident on Tributary Point Dr at US-50.,,Hazel Ave,R,Rancho Cordova,Sacramento,CA,95670,US,US/Pacific,KMHR,7/21/2016 21:46,66.2,,49,30.04,10,South,8.1,,Clear,FALSE,FALSE,FALSE,FALSE,FALSE,FALSE,FALSE,FALSE,FALSE,FALSE,FALSE,FALSE,FALSE,Night,Night,Night,Day,0.77358833
A-36272,MapQuest,229,3,4/26/2016 18:58,4/26/2016 19:43,37.698124,-121.940765,,,0.01,Slow traffic due to accident on I-580 Eastbound at I-580 Exit 44A / San Ramon Rd.,,I-580 E,R,Pleasanton,Alameda,CA,94588,US,US/Pacific,KLVK,4/26/2016 18:53,59,,58,30.03,10,WSW,9.2,,Partly Cloudy,FALSE,FALSE,FALSE,FALSE,FALSE,FALSE,FALSE,FALSE,FALSE,FALSE,FALSE,FALSE,FALSE,Day,Day,Day,Day,0.359288901
A-22410,MapQuest,201,2,9/29/2016 7:08,9/29/2016 7:55,38.777943,-121.728584,,,0,Accident on County Hwy-E8 County Road 102 Southbound before County Road 14.,11000,County Road 102,L,Woodland,Yolo,CA,95776-9119,US,US/Pacific,KSMF,9/29/2016 6:53,55,,83,29.96,10,South,15,,Clear,FALSE,FALSE,FALSE,FALSE,FALSE,FALSE,FALSE,FALSE,FALSE,FALSE,FALSE,FALSE,FALSE,Day,Day,Day,Day,0.026045136
A-36294,MapQuest,229,3,4/26/2016 20:19,4/26/2016 21:19,37.70134,-121.873657,,,0.01,Slow traffic due to accident on I-580 Eastbound near Exit 47 Tassajara Rd.,,I-580 E,R,Pleasanton,Alameda,CA,94588,US,US/Pacific,KLVK,4/26/2016 19:53,55,,67,30.03,10,South,10.4,,Overcast,FALSE,FALSE,FALSE,FALSE,FALSE,FALSE,FALSE,FALSE,FALSE,FALSE,FALSE,FALSE,FALSE,Night,Day,Day,Day,0.402903926
A-19718,MapQuest,201,3,9/13/2016 9:40,9/13/2016 10:10,38.92551,-122.000397,,,0,Accident on I-5 Northbound at Exit 559 County Line Rd.,,County Line Rd,R,Dunnigan,Yolo,CA,95937,US,US/Pacific,KSMF,9/13/2016 9:53,62.1,,60,29.92,10,South,10.4,,Partly Cloudy,FALSE,FALSE,FALSE,FALSE,FALSE,FALSE,FALSE,FALSE,FALSE,FALSE,FALSE,FALSE,FALSE,Day,Day,Day,Day,0.158275813
A-2055,MapQuest,201,2,7/4/2016 12:57,7/4/2016 13:27,37.854958,-122.493698,,,0,Right lane blocked due to accident on US-101 Southbound at Exit 443 Monte Mar Dr.,,US-101 S,R,Sausalito,Marin,CA,94965,US,US/Pacific,KSFO,7/4/2016 12:56,68,,63,30.04,10,NNE,9.2,,Partly Cloudy,FALSE,FALSE,FALSE,FALSE,TRUE,FALSE,FALSE,FALSE,FALSE,FALSE,FALSE,FALSE,FALSE,Day,Day,Day,Day,0.038217027
A-25767,MapQuest,201,2,8/3/2016 9:54,8/3/2016 10:24,38.474388,-121.408821,,,0,Accident on Elsie Ave Eastbound at Power Inn Rd.,,Power Inn Rd,R,Sacramento,Sacramento,CA,95828,US,US/Pacific,KSAC,8/3/2016 9:53,75,,48,29.94,10,Calm,,,Clear,FALSE,FALSE,FALSE,FALSE,FALSE,FALSE,FALSE,FALSE,FALSE,FALSE,FALSE,FALSE,FALSE,Day,Day,Day,Day,0.335673581
A-20945,MapQuest,201,2,9/19/2016 12:42,9/19/2016 13:27,37.701061,-122.393188,,,0,Accident on US-101 Northbound at Candlestick Park.,,US-101 N,R,Brisbane,San Mateo,CA,94005,US,US/Pacific,KSFO,9/19/2016 12:56,77,,58,29.92,10,North,6.9,,Mostly Cloudy,FALSE,FALSE,FALSE,FALSE,TRUE,FALSE,FALSE,FALSE,FALSE,FALSE,FALSE,FALSE,FALSE,Day,Day,Day,Day,0.781540917
A-29861,MapQuest,201,2,9/3/2016 18:27,9/3/2016 19:12,38.51487,-122.19075,,,0,Accident on Steele Canyon Rd at Arroyo Linda Ct.,1000,Arroyo Linda Ct,L,Napa,Napa,CA,94558-9518,US,US/Pacific,KAPC,9/3/2016 18:54,64.9,,68,29.73,10,South,15,,Clear,FALSE,FALSE,FALSE,FALSE,FALSE,FALSE,FALSE,FALSE,FALSE,FALSE,FALSE,FALSE,FALSE,Day,Day,Day,Day,0.558179706
A-32942,MapQuest,201,2,4/4/2016 16:53,4/4/2016 18:08,38.495975,-121.459145,,,0,Accident on Florin Rd at County Hwy-J8 Franklin Blvd.,,Florin Rd,R,Sacramento,Sacramento,CA,95823,US,US/Pacific,KSAC,4/4/2016 16:53,77,,37,30.15,10,Variable,5.8,,Clear,FALSE,FALSE,FALSE,FALSE,FALSE,FALSE,FALSE,FALSE,FALSE,FALSE,FALSE,TRUE,FALSE,Day,Day,Day,Day,0.952954757
A-9353,MapQuest,201,3,1/3/2017 7:11,1/3/2017 8:10,38.546047,-121.509056,,,0.01,Right hand shoulder blocked due to accident on I-5 Northbound near Exit 516 Sutterville Rd.,,I-5 N,R,Sacramento,Sacramento,CA,95818,US,US/Pacific,KSAC,1/3/2017 6:53,45,39.3,97,30.09,10,SE,11.5,0.01,Light Rain,FALSE,FALSE,FALSE,FALSE,FALSE,FALSE,FALSE,FALSE,FALSE,FALSE,FALSE,FALSE,FALSE,Night,Day,Day,Day,0.115378781
A-9264,MapQuest,201,2,1/2/2017 17:34,1/2/2017 18:19,37.669235,-122.09729,,,0,Accident on Princeton St at Smalley Ave.,299,Smalley Ave,R,Hayward,Alameda,CA,94541-4913,US,US/Pacific,KHWD,1/2/2017 17:54,50,,68,30.06,10,South,4.6,,Overcast,FALSE,FALSE,TRUE,FALSE,FALSE,FALSE,FALSE,FALSE,FALSE,TRUE,FALSE,FALSE,FALSE,Night,Night,Day,Day,0.994939569
A-7339,MapQuest,241,2,12/15/2016 21:12,12/15/2016 21:41,37.870613,-122.507088,,,0.01,Slow lane blocked due to accident on US-101 Northbound at Exit 445A Donahue St.,,US-101 N,R,Sausalito,Marin,CA,94965,US,US/Pacific,KSFO,12/15/2016 20:56,53.1,,86,29.69,3,West,19.6,0.03,Light Rain,FALSE,FALSE,FALSE,FALSE,TRUE,FALSE,FALSE,FALSE,FALSE,FALSE,FALSE,FALSE,FALSE,Night,Night,Night,Night,0.822020785
A-356,MapQuest,201,3,2/24/2016 6:24,2/24/2016 6:54,39.845287,-83.993217,,,0.01,Accident on I-675 Northbound at Exit 24 OH-444 Broad St. Expect delays.,,I-675 N,R,Fairborn,Greene,OH,45324,US,US/Eastern,KFFO,2/24/2016 5:58,39.2,29.8,100,29.45,6,ENE,18.4,0.16,Light Rain,FALSE,FALSE,FALSE,FALSE,FALSE,FALSE,FALSE,FALSE,FALSE,FALSE,FALSE,FALSE,FALSE,Night,Night,Day,Day,0.759686161
A-14864,MapQuest,201,2,11/3/2016 17:15,11/3/2016 17:44,38.900295,-121.074791,,,0.01,Accident on CA-49 Grass Valley Hwy Northbound at I-80.,,I-80 W,R,Auburn,Placer,CA,95603,US,US/Pacific,KAUN,11/3/2016 17:15,69.8,,53,30.15,10,WNW,3.5,,Clear,FALSE,FALSE,FALSE,FALSE,TRUE,FALSE,FALSE,FALSE,FALSE,FALSE,FALSE,FALSE,FALSE,Day,Day,Day,Day,0.964606349
A-12924,MapQuest,201,2,10/20/2016 22:27,10/20/2016 22:56,37.265156,-121.939735,,,0.01,Accident on Camden Ave both ways at Calvin Ave.,2240,Camden Ave,L,San Jose,Santa Clara,CA,95124-2028,US,US/Pacific,KSJC,10/20/2016 22:53,64,,56,30.01,10,Calm,,,Clear,FALSE,FALSE,TRUE,FALSE,FALSE,FALSE,FALSE,FALSE,FALSE,FALSE,FALSE,FALSE,FALSE,Night,Night,Night,Night,0.862764782
A-23031,MapQuest,201,2,10/4/2016 10:39,10/4/2016 11:09,37.969894,-121.922874,,,0,Accident on Kirker Pass Rd Southbound at Hess Rd.,,Hess Rd,R,Concord,Contra Costa,CA,94521,US,US/Pacific,KCCR,10/4/2016 10:53,64.9,,54,30,10,SW,4.6,,Mostly Cloudy,FALSE,FALSE,FALSE,FALSE,FALSE,FALSE,FALSE,FALSE,FALSE,FALSE,FALSE,FALSE,FALSE,Day,Day,Day,Day,0.535863324
A-12328,MapQuest,201,2,1/23/2017 12:49,1/23/2017 13:34,38.430325,-120.576805,,,0.01,Accident on Carson Dr at CA-88.,23663,State Highway 88,L,Pioneer,Amador,CA,95666-9203,US,US/Pacific,KPVF,1/23/2017 12:55,37.4,32.1,93,29.81,10,SSE,6.9,,Overcast,FALSE,FALSE,FALSE,FALSE,FALSE,FALSE,FALSE,FALSE,FALSE,FALSE,FALSE,FALSE,FALSE,Day,Day,Day,Day,0.726294001
A-25411,MapQuest,203,3,10/19/2016 19:22,10/19/2016 19:51,37.322247,-121.898155,,,0.01,Right hand shoulder blocked due to multi-vehicle accident on I-280 Southbound at Exits 3A 3B Bird Ave.,,Bird Ave,R,San Jose,Santa Clara,CA,95126,US,US/Pacific,KSJC,10/19/2016 18:53,68,,47,30.1,10,NW,10.4,,Mostly Cloudy,FALSE,FALSE,FALSE,FALSE,FALSE,FALSE,FALSE,FALSE,FALSE,FALSE,FALSE,FALSE,FALSE,Night,Night,Night,Day,0.941729605
A-30951,MapQuest,201,2,9/9/2016 21:26,9/9/2016 22:00,37.385773,-121.976234,,,0,Accident on US-101 Southbound at Exit 393 Bowers Ave.,,US-101 N,R,Santa Clara,Santa Clara,CA,95054,US,US/Pacific,KSJC,9/9/2016 21:53,61,,78,30.03,10,WNW,9.2,,Clear,FALSE,FALSE,FALSE,FALSE,FALSE,FALSE,FALSE,FALSE,FALSE,FALSE,FALSE,FALSE,FALSE,Night,Night,Night,Night,0.087697617
A-9127,MapQuest,201,2,12/30/2016 20:18,12/30/2016 20:48,37.764633,-122.405113,,,0.01,Accident on US-101 Southbound at Exit 433A Vermont St.,,17th St,R,San Francisco,San Francisco,CA,94103,US,US/Pacific,KSFO,12/30/2016 19:56,52,,71,29.95,10,West,18.4,,Scattered Clouds,FALSE,FALSE,FALSE,FALSE,FALSE,FALSE,FALSE,FALSE,FALSE,FALSE,FALSE,FALSE,FALSE,Night,Night,Night,Night,0.137134819
A-27465,MapQuest,229,3,8/16/2016 0:46,8/16/2016 1:16,38.069801,-122.226746,,,0,Slow traffic due to accident on I-80 Eastbound around I-80 / Carquinez Toll Plaza Rd.,,Carquinez Brg E,R,Vallejo,Solano,CA,94591,US,US/Pacific,KAPC,8/16/2016 0:54,54,,93,29.89,10,West,4.6,,Clear,FALSE,FALSE,FALSE,FALSE,FALSE,FALSE,FALSE,FALSE,FALSE,FALSE,FALSE,FALSE,FALSE,Night,Night,Night,Night,0.112271102
A-22669,MapQuest,201,2,10/1/2016 10:21,10/1/2016 10:51,37.862869,-121.218681,,,0,Accident on CA-99 Northbound at Exit 246 County Hwy-J9 French Camp Rd.,,CA-99 N,R,Manteca,San Joaquin,CA,95336,US,US/Pacific,KSCK,10/1/2016 9:55,64.9,,52,30.12,10,NW,11.5,,Clear,FALSE,FALSE,FALSE,FALSE,FALSE,FALSE,FALSE,FALSE,FALSE,FALSE,FALSE,FALSE,FALSE,Day,Day,Day,Day,0.322495924
A-18314,MapQuest,201,3,11/23/2016 10:02,11/23/2016 10:32,37.808498,-122.366852,,,0.01,Accident on I-80 Eastbound at Exit 4A Treasure Is.,,San Francisco-Oakland Bay Brg E,R,San Francisco,San Francisco,CA,94130,US,US/Pacific,KOAK,11/23/2016 9:53,54,,90,30.34,10,SE,4.6,0,Partly Cloudy,FALSE,FALSE,FALSE,FALSE,FALSE,FALSE,FALSE,FALSE,FALSE,FALSE,FALSE,FALSE,FALSE,Day,Day,Day,Day,0.624516173
A-11738,MapQuest,201,2,1/19/2017 9:30,1/19/2017 10:00,37.55444,-122.048157,,,0.01,Accident on CA-84 Westbound at Exit 37 Ardenwood Blvd.,,CA-84 W,R,Fremont,Alameda,CA,94555,US,US/Pacific,KHWD,1/19/2017 9:54,51.1,,77,29.93,10,South,9.2,0.02,Mostly Cloudy,FALSE,FALSE,FALSE,FALSE,FALSE,FALSE,FALSE,FALSE,FALSE,FALSE,FALSE,FALSE,FALSE,Day,Day,Day,Day,0.402689315
A-11135,MapQuest,201,2,1/14/2017 9:51,1/14/2017 10:20,37.709648,-122.124367,,,0.01,#1 lane blocked due to accident on 150th Ave at I-580.,,I-580 E,R,San Leandro,Alameda,CA,94578,US,US/Pacific,KHWD,1/14/2017 9:54,50,,63,30.27,10,WNW,3.5,,Clear,FALSE,FALSE,TRUE,FALSE,FALSE,FALSE,FALSE,FALSE,FALSE,FALSE,FALSE,TRUE,FALSE,Day,Day,Day,Day,0.044429209
A-31592,MapQuest,201,3,3/26/2016 0:28,3/26/2016 1:28,37.824615,-122.304436,,,0.01,Accident on I-880 Northbound at I-80.,,I-880 N,R,Oakland,Alameda,CA,94607,US,US/Pacific,KOAK,3/26/2016 0:53,53.1,,80,29.99,10,NE,3.5,,Clear,FALSE,FALSE,FALSE,FALSE,FALSE,FALSE,FALSE,FALSE,FALSE,FALSE,FALSE,FALSE,FALSE,Night,Night,Night,Night,0.496369055
A-18440,MapQuest,201,3,11/23/2016 18:39,11/23/2016 19:09,38.612087,-121.538429,,,0.01,Accident on I-80 Eastbound at Exit 85 El Camino Ave.,,I-80 E,R,Sacramento,Sacramento,CA,95833,US,US/Pacific,KMCC,11/23/2016 18:35,48.2,,76,30.34,10,NE,3.5,,Clear,FALSE,FALSE,FALSE,FALSE,TRUE,FALSE,FALSE,FALSE,FALSE,FALSE,FALSE,FALSE,FALSE,Night,Night,Night,Night,0.69773222
A-34694,MapQuest,201,2,4/14/2016 17:35,4/14/2016 18:05,37.78632,-122.472641,,,0.01,Accident on CA-1 Park Presidio Blvd at Lake St.,,State Highway 1,R,San Francisco,San Francisco,CA,94118,US,US/Pacific,KSFO,4/14/2016 17:56,60.1,,62,30.14,10,West,31.1,,Scattered Clouds,FALSE,FALSE,TRUE,FALSE,FALSE,FALSE,FALSE,FALSE,FALSE,FALSE,FALSE,TRUE,FALSE,Day,Day,Day,Day,0.420432053
A-35257,MapQuest,241,2,4/20/2016 4:02,4/20/2016 5:02,37.328629,-121.876312,,,0,Lane blocked due to accident on 7th St at Margaret St.,698,S 7th St,L,San Jose,Santa Clara,CA,95112-3828,US,US/Pacific,KSJC,4/20/2016 3:53,53.1,,59,29.93,10,SE,4.6,,Clear,FALSE,FALSE,TRUE,FALSE,FALSE,FALSE,FALSE,FALSE,FALSE,FALSE,FALSE,FALSE,FALSE,Night,Night,Night,Night,0.480990712
A-10551,MapQuest,201,3,1/10/2017 9:29,1/10/2017 9:59,38.520859,-121.769318,,,0.01,Accident on I-80 Westbound near Exit 70 CA-113.,,I-80 W,R,Dixon,Solano,CA,95620,US,US/Pacific,KEDU,,,,,,,,,,,FALSE,FALSE,FALSE,FALSE,FALSE,FALSE,FALSE,FALSE,FALSE,FALSE,FALSE,FALSE,FALSE,Day,Day,Day,Day,0.139061954
A-755,MapQuest,201,2,6/21/2016 11:52,6/21/2016 12:22,37.613815,-122.396652,,,0,#2 lane blocked due to accident on US-101 Northbound at Exit 422 McDonnell Rd.,,US-101 N,R,Millbrae,San Mateo,CA,94030,US,US/Pacific,KSFO,6/21/2016 11:56,75.9,,38,30.03,10,WNW,12.7,,Partly Cloudy,FALSE,FALSE,FALSE,FALSE,FALSE,FALSE,FALSE,FALSE,FALSE,FALSE,FALSE,FALSE,FALSE,Day,Day,Day,Day,0.804195932
A-37784,MapQuest,201,2,5/9/2016 11:48,5/9/2016 12:18,38.53606,-122.870338,,,0,Accident on Sweetwater Springs Rd at Westside Rd.,6001,Westside Rd,L,Healdsburg,Sonoma,CA,95448-8361,US,US/Pacific,KSTS,5/9/2016 11:53,59,,81,29.96,7,Variable,3.5,,Overcast,FALSE,FALSE,FALSE,FALSE,FALSE,FALSE,FALSE,FALSE,FALSE,FALSE,FALSE,FALSE,FALSE,Day,Day,Day,Day,0.994594317
A-8211,MapQuest,201,2,12/22/2016 17:12,12/22/2016 17:42,38.095963,-122.561325,,,0.01,Accident on US-101 Redwood Hwy Northbound at Exit 462A Rowland Blvd.,,Redwood Hwy S,R,Novato,Marin,CA,94945,US,US/Pacific,KDVO,12/22/2016 17:15,48.2,,76,29.98,10,Calm,,,Clear,FALSE,FALSE,FALSE,FALSE,FALSE,FALSE,FALSE,FALSE,FALSE,FALSE,FALSE,FALSE,FALSE,Night,Day,Day,Day,0.683830525
A-37973,MapQuest,245,3,5/10/2016 12:10,5/10/2016 12:40,38.222748,-122.12883,,,0.01,Two lanes blocked and delays due to accident on I-80 Westbound near Exit 41 Suisun Valley Rd.,,Suisun Valley Rd,R,Fairfield,Solano,CA,94534,US,US/Pacific,KAPC,5/10/2016 11:54,62.1,,75,29.97,10,North,,,Clear,FALSE,FALSE,FALSE,FALSE,FALSE,FALSE,FALSE,FALSE,FALSE,FALSE,FALSE,FALSE,FALSE,Day,Day,Day,Day,0.985363944
A-24842,MapQuest,201,2,10/16/2016 13:29,10/16/2016 13:58,38.061886,-121.373779,,,0.01,Accident on I-5 Northbound at Exit 481 Eight Mile Rd.,,I-5 N,R,Stockton,San Joaquin,CA,95209,US,US/Pacific,KSCK,10/16/2016 13:55,66.9,,84,29.74,3,SSE,18.4,0,Light Rain,FALSE,FALSE,FALSE,FALSE,FALSE,FALSE,FALSE,FALSE,FALSE,FALSE,FALSE,FALSE,FALSE,Day,Day,Day,Day,0.620417684
A-12255,MapQuest,201,2,1/22/2017 23:50,1/23/2017 0:20,38.01545,-122.190369,,,0.01,Accident on CA-4 John Muir Pkwy Westbound at Cummings Skwy.,,Cummings Skwy,R,Martinez,Contra Costa,CA,94553,US,US/Pacific,KCCR,1/22/2017 23:53,48,,80,29.68,10,South,9.2,0.01,Mostly Cloudy,FALSE,FALSE,FALSE,FALSE,FALSE,FALSE,FALSE,FALSE,FALSE,FALSE,FALSE,FALSE,FALSE,Night,Night,Night,Night,0.25674934
A-28884,MapQuest,201,2,8/27/2016 3:22,8/27/2016 4:22,37.947777,-122.513275,,,0,Accident on US-101 Southbound at Exit 450B Sir Francis Drake Blvd. On the median.,,US-101 S,R,Greenbrae,Marin,CA,94904,US,US/Pacific,KDVO,8/27/2016 3:15,62.6,,77,29.98,10,West,4.6,,Overcast,FALSE,FALSE,FALSE,FALSE,FALSE,FALSE,FALSE,FALSE,FALSE,FALSE,FALSE,FALSE,FALSE,Night,Night,Night,Night,0.46272805
A-26430,MapQuest,241,3,8/9/2016 11:29,8/9/2016 11:59,37.334507,-122.027931,,,0,#2 lane blocked due to accident on I-280 Northbound at Exit 11 De Anza Blvd.,,Junipero Serra Fwy N,R,Cupertino,Santa Clara,CA,95014,US,US/Pacific,KNUQ,8/9/2016 11:56,73.9,,48,29.86,10,Variable,4.6,,Clear,FALSE,FALSE,FALSE,FALSE,FALSE,FALSE,FALSE,FALSE,FALSE,FALSE,FALSE,FALSE,FALSE,Day,Day,Day,Day,0.500688947
A-12355,MapQuest,201,3,1/23/2017 16:55,1/23/2017 17:25,37.952862,-122.328003,,,0.01,Middle lane blocked due to accident on I-80 Eastbound at Exit 18 San Pablo Dam Rd.,,I-80 E,R,San Pablo,Contra Costa,CA,94806,US,US/Pacific,KCCR,1/23/2017 16:53,51.1,,61,29.81,10,SW,8.1,,Scattered Clouds,FALSE,FALSE,FALSE,FALSE,TRUE,FALSE,FALSE,FALSE,FALSE,FALSE,FALSE,FALSE,FALSE,Day,Day,Day,Day,0.444911709
A-30167,MapQuest,201,3,9/6/2016 15:44,9/6/2016 16:30,37.608707,-122.068192,,,0,Lane blocked on exit ramp to three due to accident on I-880 Southbound at Exit 24 Whipple Rd.,,Nimitz Fwy S,R,Union City,Alameda,CA,94587,US,US/Pacific,KHWD,9/6/2016 15:54,84,,24,29.86,10,WNW,12.7,,Clear,FALSE,FALSE,FALSE,FALSE,TRUE,FALSE,FALSE,FALSE,FALSE,FALSE,FALSE,FALSE,FALSE,Day,Day,Day,Day,0.643833182
A-2606,MapQuest,201,2,7/9/2016 7:43,7/9/2016 15:09,37.998032,-121.806084,,,0,Accident on CA-4 Westbound at Exit 28 A St.,2560,A St,R,Antioch,Contra Costa,CA,94509,US,US/Pacific,KCCR,7/9/2016 7:53,66,,70,30.03,10,South,11.5,,Clear,FALSE,FALSE,FALSE,FALSE,FALSE,FALSE,FALSE,FALSE,FALSE,FALSE,FALSE,FALSE,FALSE,Day,Day,Day,Day,0.372227536
A-7843,MapQuest,201,2,12/20/2016 10:21,12/20/2016 10:51,37.145176,-122.087814,,,0.01,Accident on Bear Creek Rd at Greenview Dr.,16106,Bear Creek Rd,R,Boulder Creek,Santa Cruz,CA,95006-8602,US,US/Pacific,KSJC,12/20/2016 9:53,44.1,42.5,71,30.35,10,East,3.5,,Partly Cloudy,FALSE,FALSE,FALSE,FALSE,FALSE,FALSE,FALSE,FALSE,FALSE,FALSE,FALSE,FALSE,FALSE,Day,Day,Day,Day,0.162222043
A-17038,MapQuest,241,3,11/16/2016 11:07,11/16/2016 11:37,37.641872,-122.405899,,,0.01,#1 lane blocked due to accident on I-380 Eastbound at Exit 6A US-101.,,US-101 N,R,South San Francisco,San Mateo,CA,94080,US,US/Pacific,KSFO,11/16/2016 10:56,60.1,,51,30.12,10,WNW,18.4,,Partly Cloudy,FALSE,FALSE,FALSE,FALSE,FALSE,FALSE,FALSE,FALSE,FALSE,FALSE,FALSE,FALSE,FALSE,Day,Day,Day,Day,0.831609716
A-30982,MapQuest,201,3,9/10/2016 7:08,9/10/2016 7:53,37.842594,-122.2976,,,0,Accident on I-80 I-580 Westbound at I-80 I-580.,,Eastshore Fwy W,R,Emeryville,Alameda,CA,94608,US,US/Pacific,KOAK,9/10/2016 6:53,57.9,,87,30.05,10,NW,3.5,,Overcast,FALSE,FALSE,FALSE,FALSE,TRUE,FALSE,FALSE,FALSE,FALSE,FALSE,FALSE,FALSE,FALSE,Day,Day,Day,Day,0.435298241
A-20905,MapQuest,201,3,9/19/2016 10:51,9/19/2016 11:36,37.806515,-122.237831,,,0,Accident on I-580 Eastbound before Park Blvd.,,I-580 E,R,Oakland,Alameda,CA,94610,US,US/Pacific,KOAK,9/19/2016 10:53,77,,58,29.94,10,NW,6.9,,Mostly Cloudy,FALSE,FALSE,FALSE,FALSE,FALSE,FALSE,FALSE,FALSE,FALSE,FALSE,FALSE,FALSE,FALSE,Day,Day,Day,Day,0.535083879
A-33670,MapQuest,201,2,4/7/2016 22:15,4/7/2016 23:00,38.014797,-121.99881,,,0,Accident on Willow Pass Rd near Evora Rd / Willow Pass Ct.,4685,Evora Rd,L,Concord,Contra Costa,CA,94520,US,US/Pacific,KCCR,4/7/2016 21:53,59,,72,29.88,10,West,6.9,,Overcast,FALSE,FALSE,FALSE,FALSE,FALSE,FALSE,FALSE,FALSE,FALSE,FALSE,FALSE,FALSE,FALSE,Night,Night,Night,Night,0.817430741
A-30880,MapQuest,201,3,9/9/2016 18:01,9/9/2016 18:46,37.784817,-121.306778,,,0,Accident on I-5 Northbound at Exit 461 CA-120. On the median.,,CA-120 E,R,Lathrop,San Joaquin,CA,95330,US,US/Pacific,KSCK,9/9/2016 17:55,93,,27,29.89,10,WNW,9.2,,Clear,FALSE,FALSE,FALSE,FALSE,FALSE,FALSE,FALSE,FALSE,FALSE,FALSE,FALSE,FALSE,FALSE,Day,Day,Day,Day,0.75573777
A-10343,MapQuest,201,3,1/8/2017 16:05,1/8/2017 16:45,37.78735,-122.247955,,,0.01,Accident on I-880 Southbound at Exit 40 Embarcadero.,,Nimitz Fwy S,R,Oakland,Alameda,CA,94606,US,US/Pacific,KOAK,1/8/2017 15:53,59,,93,29.85,3,South,17.3,0.08,Rain,FALSE,FALSE,FALSE,FALSE,TRUE,FALSE,FALSE,FALSE,FALSE,FALSE,FALSE,FALSE,FALSE,Day,Day,Day,Day,0.582798646
A-9154,MapQuest,201,2,12/31/2016 2:51,12/31/2016 3:21,38.00198,-122.049637,,,0.01,Accident on CA-4 Westbound at Solano Way.,,CA-4 W,R,Concord,Contra Costa,CA,94520,US,US/Pacific,KCCR,12/31/2016 2:53,46.9,,66,29.86,10,SSW,9.2,,Partly Cloudy,FALSE,FALSE,FALSE,FALSE,FALSE,FALSE,FALSE,FALSE,FALSE,FALSE,FALSE,FALSE,FALSE,Night,Night,Night,Night,0.947224765
A-13568,MapQuest,201,2,10/25/2016 19:02,10/25/2016 19:32,37.552258,-121.917664,,,0.01,Accident on I-680 Northbound at Exits 18 18A Vargas Rd.,,I-680 N,R,Fremont,Alameda,CA,94539,US,US/Pacific,KNUQ,10/25/2016 18:56,66.9,,59,30.03,10,South,8.1,,Overcast,FALSE,FALSE,FALSE,FALSE,FALSE,FALSE,FALSE,FALSE,FALSE,FALSE,FALSE,FALSE,FALSE,Night,Night,Day,Day,0.151300701
A-11616,MapQuest,241,2,1/18/2017 17:30,1/18/2017 18:00,37.983276,-122.041641,,,0.01,#1 lane blocked due to accident on CA-242 Southbound at Exit 1C Concord Ave.,,CA-242 S,R,Concord,Contra Costa,CA,94520,US,US/Pacific,KCCR,1/18/2017 17:53,52,,80,29.66,2.5,South,12.7,0.02,Light Rain,FALSE,FALSE,FALSE,FALSE,TRUE,FALSE,FALSE,FALSE,FALSE,FALSE,FALSE,FALSE,FALSE,Night,Day,Day,Day,0.552867294
A-4636,MapQuest,222,2,7/28/2016 22:39,7/28/2016 23:54,38.660816,-121.382828,,,0,Queueing traffic due to accident on Watt Ave at Peacekeeper Way.,,Peacekeeper Way,R,North Highlands,Sacramento,CA,95660,US,US/Pacific,KMCC,7/28/2016 22:35,80.6,,32,29.8,10,SSE,6.9,,Clear,FALSE,FALSE,FALSE,FALSE,FALSE,FALSE,FALSE,FALSE,FALSE,FALSE,FALSE,TRUE,FALSE,Night,Night,Night,Night,0.034169574
A-10220,MapQuest,201,3,1/8/2017 0:26,1/8/2017 0:56,37.699734,-122.040649,,,0.01,Accident on I-580 Westbound at Exit 39 Eden Canyon Rd.,,I-580 W,R,Castro Valley,Alameda,CA,94552,US,US/Pacific,KHWD,1/8/2017 0:54,59,,83,30.01,7,SE,17.3,0.07,Rain,FALSE,FALSE,FALSE,FALSE,FALSE,FALSE,FALSE,FALSE,FALSE,FALSE,FALSE,FALSE,FALSE,Night,Night,Night,Night,0.99101394
A-18183,MapQuest,201,2,11/22/2016 18:27,11/22/2016 18:57,39.315331,-120.723824,,,0.01,Accident on CA-20 at Excelsior Point Rd.,10023,State Highway 20,L,Grass Valley,Nevada,CA,95945,US,US/Pacific,KGOO,11/22/2016 18:20,44.6,,,30.14,9,Calm,,,Overcast,FALSE,FALSE,FALSE,FALSE,FALSE,FALSE,FALSE,FALSE,FALSE,FALSE,FALSE,FALSE,FALSE,Night,Night,Night,Night,0.660818436
A-10268,MapQuest,201,3,1/8/2017 7:07,1/8/2017 7:57,38.001785,-122.281792,,,0.01,#2-1 lane blocked and right hand shoulder blocked due to accident on I-80 Westbound at Exit 23 CA-4.,,I-80 W,R,Pinole,Contra Costa,CA,94564,US,US/Pacific,KCCR,1/8/2017 6:53,62.1,,75,29.8,8,South,15,0.04,Light Rain,FALSE,FALSE,FALSE,FALSE,FALSE,FALSE,FALSE,FALSE,FALSE,FALSE,FALSE,FALSE,FALSE,Night,Day,Day,Day,0.96990489
A-9660,MapQuest,201,2,1/4/2017 19:37,1/4/2017 20:06,38.509232,-121.466362,,,0.01,Accident on County Hwy-J8 Franklin Blvd at County Hwy-J8 Franklin Blvd.,,County Hwy-J8,R,Sacramento,Sacramento,CA,95823,US,US/Pacific,KSAC,1/4/2017 19:53,46.9,,100,29.95,7,West,3.5,0.05,Light Rain,FALSE,FALSE,FALSE,FALSE,FALSE,FALSE,FALSE,FALSE,FALSE,FALSE,FALSE,FALSE,FALSE,Night,Night,Night,Night,0.711962741
A-22404,MapQuest,241,3,9/29/2016 2:37,9/29/2016 3:22,37.910786,-122.317139,,,0,One lane blocked due to accident on I-80 Eastbound at Exit 14B Carlson Blvd.,,I-80 E,R,Richmond,Contra Costa,CA,94804,US,US/Pacific,KCCR,9/29/2016 2:53,57,,74,29.93,10,West,9.2,,Clear,FALSE,FALSE,FALSE,FALSE,FALSE,FALSE,FALSE,FALSE,FALSE,FALSE,FALSE,FALSE,FALSE,Night,Night,Night,Night,0.97217975
A-14894,MapQuest,201,3,11/3/2016 20:01,11/3/2016 20:30,37.317459,-121.938637,,,0.01,Accident on I-280 Southbound at Exits 1C 5A 5B CA-17.,,Sinclair Fwy N,R,San Jose,Santa Clara,CA,95128,US,US/Pacific,KSJC,11/3/2016 19:53,66,,54,30.08,10,South,3.5,,Partly Cloudy,FALSE,FALSE,FALSE,FALSE,FALSE,FALSE,FALSE,FALSE,FALSE,FALSE,FALSE,FALSE,FALSE,Night,Night,Night,Night,0.634012011
A-21101,MapQuest,201,2,9/20/2016 10:34,9/20/2016 11:18,38.630016,-121.401527,,,0,Accident on Auburn Blvd at Fulton Ave.,,Auburn Blvd,R,Sacramento,Sacramento,CA,95821,US,US/Pacific,KMCC,9/20/2016 10:35,77,,34,29.96,9,South,12.7,,Clear,FALSE,FALSE,FALSE,FALSE,FALSE,FALSE,FALSE,FALSE,FALSE,FALSE,FALSE,FALSE,FALSE,Day,Day,Day,Day,0.598631231
A-29670,MapQuest,222,3,9/1/2016 20:27,9/1/2016 22:27,38.674026,-121.740028,,,0,Queueing traffic due to accident on I-5 Southbound after Exit 537 / Main St.,,CA-16 E,R,Woodland,Yolo,CA,95776,US,US/Pacific,KSMF,9/1/2016 20:53,70,,61,29.84,10,South,9.2,,Scattered Clouds,FALSE,FALSE,FALSE,FALSE,FALSE,FALSE,FALSE,FALSE,FALSE,FALSE,FALSE,FALSE,FALSE,Night,Night,Day,Day,0.720907827
A-33771,MapQuest,201,2,4/8/2016 22:23,4/9/2016 0:56,38.690338,-121.382881,,,0,Accident on Watt Ave at County Hwy-E14 Elkhorn Blvd.,,Elkhorn Blvd,R,North Highlands,Sacramento,CA,95660,US,US/Pacific,KMCC,4/8/2016 22:30,59,,82,29.88,10,SSE,10.4,,Clear,FALSE,FALSE,FALSE,FALSE,FALSE,FALSE,FALSE,FALSE,FALSE,FALSE,FALSE,TRUE,FALSE,Night,Night,Night,Night,0.447926603
A-27013,MapQuest,201,3,8/12/2016 17:33,8/12/2016 18:18,37.640194,-122.090424,,,0,Right hand shoulder blocked due to accident on I-880 Northbound at Exit 27 CA-92 Jackson St.,,I-880 N,R,Hayward,Alameda,CA,94544,US,US/Pacific,KHWD,8/12/2016 17:54,73,,51,29.99,10,WNW,11.5,,Clear,FALSE,FALSE,FALSE,FALSE,FALSE,FALSE,FALSE,FALSE,FALSE,FALSE,FALSE,FALSE,FALSE,Day,Day,Day,Day,0.687901322
A-22323,MapQuest,201,3,9/28/2016 12:44,9/28/2016 13:29,37.808498,-122.366852,,,0,#1 lane blocked due to accident on I-80 Eastbound at Exit 4A Treasure Is.,,San Francisco-Oakland Bay Brg E,R,San Francisco,San Francisco,CA,94130,US,US/Pacific,KOAK,9/28/2016 12:53,66.9,,68,29.9,10,WNW,13.8,,Partly Cloudy,FALSE,FALSE,FALSE,FALSE,FALSE,FALSE,FALSE,FALSE,FALSE,FALSE,FALSE,FALSE,FALSE,Day,Day,Day,Day,0.631135546
A-8884,MapQuest,241,3,12/28/2016 20:54,12/28/2016 21:23,38.671066,-121.591339,,,0.01,#1 lane blocked due to accident on I-5 Southbound near Exit 528 Airport Blvd.,,CA-16 E,R,Sacramento,Sacramento,CA,95837,US,US/Pacific,KSMF,12/28/2016 20:53,42.1,38.4,85,30.25,10,SSE,5.8,,Clear,FALSE,FALSE,FALSE,FALSE,FALSE,FALSE,FALSE,FALSE,FALSE,FALSE,FALSE,FALSE,FALSE,Night,Night,Night,Night,0.271046287
A-39796,MapQuest,201,2,5/24/2016 16:18,5/24/2016 17:00,38.092381,-120.66433,,,0,Accident on Pool Station Rd at Riata Way.,8099,Riata Way,R,Angels Camp,Calaveras,CA,95222-9632,US,US/Pacific,KO22,5/24/2016 16:15,60.8,,63,29.96,10,North,3.5,,Overcast,FALSE,FALSE,FALSE,FALSE,FALSE,FALSE,FALSE,FALSE,FALSE,FALSE,FALSE,FALSE,FALSE,Day,Day,Day,Day,0.808885677
A-32882,MapQuest,201,2,4/4/2016 11:53,4/4/2016 12:53,38.5868,-121.370857,,,0,Right hand shoulder blocked due to accident on Castec Dr at La Sierra Dr.,1371,Castec Dr,L,Sacramento,Sacramento,CA,95864-2877,US,US/Pacific,KMHR,4/4/2016 11:45,68,,49,30.2,10,Calm,,,Clear,FALSE,FALSE,FALSE,FALSE,FALSE,FALSE,FALSE,FALSE,FALSE,FALSE,FALSE,FALSE,FALSE,Day,Day,Day,Day,0.789865801
A-18117,MapQuest,201,2,11/22/2016 11:43,11/22/2016 12:13,37.37682,-121.941536,,,0.01,Accident on US-101 Northbound at Trimble Rd.,,Trimble Rd,R,San Jose,Santa Clara,CA,95131,US,US/Pacific,KSJC,11/22/2016 11:53,60.1,,55,30.18,10,West,3.5,,Mostly Cloudy,FALSE,FALSE,FALSE,FALSE,TRUE,FALSE,FALSE,FALSE,FALSE,FALSE,FALSE,FALSE,FALSE,Day,Day,Day,Day,0.306535683
A-11701,MapQuest,201,3,1/19/2017 0:22,1/19/2017 0:51,37.367241,-121.901001,,,0.01,Slow lane blocked due to accident on I-880 Northbound at Exits 4C 4D Gish Rd.,,Old Bayshore Hwy,R,San Jose,Santa Clara,CA,95112,US,US/Pacific,KSJC,1/19/2017 0:53,48.9,,93,29.85,10,ESE,4.6,0,Overcast,FALSE,FALSE,FALSE,FALSE,FALSE,FALSE,FALSE,FALSE,FALSE,FALSE,FALSE,FALSE,FALSE,Night,Night,Night,Night,0.011206581
A-8663,MapQuest,201,3,12/27/2016 1:59,12/27/2016 2:43,37.785542,-122.39138,,,0.01,Middle lane blocked due to accident on I-80 Westbound at Exits 2B 2C Harrison St.,,James Lick Fwy N,R,San Francisco,San Francisco,CA,94105,US,US/Pacific,KOAK,12/27/2016 1:53,43,,49,30.35,10,Calm,,,Mostly Cloudy,FALSE,FALSE,FALSE,FALSE,TRUE,FALSE,FALSE,FALSE,FALSE,FALSE,FALSE,FALSE,FALSE,Night,Night,Night,Night,0.015297234
A-6543,MapQuest,201,2,12/9/2016 17:32,12/9/2016 18:02,38.560581,-121.463982,,,0.01,Accident on US-50 Eastbound at Exit 7 Stockton Blvd.,,US-50 E,R,Sacramento,Sacramento,CA,95816,US,US/Pacific,KSAC,12/9/2016 17:53,54,,100,30.16,3,Calm,,,Scattered Clouds,FALSE,FALSE,FALSE,FALSE,FALSE,FALSE,FALSE,FALSE,FALSE,FALSE,FALSE,FALSE,FALSE,Night,Night,Day,Day,0.472595149
A-22133,MapQuest,245,3,9/27/2016 11:33,9/27/2016 12:01,38.759174,-121.261055,,,0,Two lanes blocked due to accident on I-80 Westbound before Exits 105A 105B Atlantic St.,,I-80 W,R,Roseville,Placer,CA,95661,US,US/Pacific,KMCC,9/27/2016 11:35,84.2,,19,29.91,9,ESE,3.5,,Light Rain,FALSE,FALSE,FALSE,FALSE,FALSE,FALSE,FALSE,FALSE,FALSE,FALSE,FALSE,FALSE,FALSE,Day,Day,Day,Day,0.779705832
A-38946,MapQuest,201,2,5/18/2016 16:26,5/18/2016 16:56,37.846107,-121.991959,,,0,Accident on Stone Valley Rd Northbound at Stone Valley Oaks Dr.,2699,Stone Valley Rd,R,Alamo,Contra Costa,CA,94507-2782,US,US/Pacific,KCCR,5/18/2016 16:53,91,,20,29.82,10,WSW,16.1,,Clear,FALSE,FALSE,FALSE,FALSE,FALSE,FALSE,FALSE,FALSE,FALSE,FALSE,FALSE,FALSE,FALSE,Day,Day,Day,Day,0.723144327
A-18009,MapQuest,201,3,11/21/2016 17:46,11/21/2016 18:16,38.560513,-121.458061,,,0.01,Accident on US-50 Westbound at Exit 7 Stockton Blvd.,,El Dorado Fwy W,R,Sacramento,Sacramento,CA,95816,US,US/Pacific,KSAC,11/21/2016 17:53,51.1,,92,30.08,10,Calm,,,Clear,FALSE,FALSE,FALSE,FALSE,FALSE,FALSE,FALSE,FALSE,FALSE,FALSE,FALSE,FALSE,FALSE,Night,Night,Day,Day,0.69618739
A-17559,MapQuest,201,2,11/18/2016 17:48,11/18/2016 18:18,38.781059,-122.043839,,,0,Accident on County Hwy-E4 County Road 85 at County Hwy-E10 County Road 14.,23798,County Road 14,R,Dunnigan,Yolo,CA,95937,US,US/Pacific,KSMF,11/18/2016 17:53,57,,59,29.95,10,SW,4.6,,Mostly Cloudy,FALSE,FALSE,FALSE,FALSE,FALSE,FALSE,FALSE,FALSE,FALSE,FALSE,FALSE,FALSE,FALSE,Night,Night,Day,Day,0.411503905
A-13326,MapQuest,201,3,10/24/2016 11:58,10/24/2016 12:27,37.701385,-121.85157,,,0.01,Right hand shoulder blocked due to accident on I-580 Westbound at Exit 48 El Charro Rd.,,I-580 W,R,Pleasanton,Alameda,CA,94588,US,US/Pacific,KLVK,10/24/2016 12:00,64.9,,56,29.98,1.8,South,13.8,,Haze,FALSE,FALSE,FALSE,FALSE,FALSE,FALSE,FALSE,FALSE,FALSE,FALSE,FALSE,FALSE,FALSE,Day,Day,Day,Day,0.527412584
A-34866,MapQuest,241,3,4/18/2016 1:44,4/18/2016 2:44,37.946144,-122.491478,,,0.01,One lane blocked due to accident on I-580 Eastbound at Exit 2A Sir Francis Drake Blvd.,,I-580 E,R,San Quentin,Marin,CA,94964,US,US/Pacific,KDVO,4/18/2016 1:35,50,,94,30.03,10,Calm,,,Clear,FALSE,FALSE,FALSE,FALSE,FALSE,FALSE,FALSE,FALSE,FALSE,FALSE,FALSE,FALSE,FALSE,Night,Night,Night,Night,0.845532907
A-23986,MapQuest,201,3,10/11/2016 11:43,10/11/2016 12:12,37.750599,-122.151489,,,0,Right hand shoulder blocked due to accident on I-580 Westbound at Exits 29 29A 98th Ave.,,I-580 W,R,Oakland,Alameda,CA,94605,US,US/Pacific,KOAK,10/11/2016 11:53,64.9,,58,30.09,10,SW,4.6,,Mostly Cloudy,FALSE,FALSE,FALSE,FALSE,TRUE,FALSE,FALSE,FALSE,FALSE,FALSE,FALSE,FALSE,FALSE,Day,Day,Day,Day,0.145038442
A-25333,MapQuest,201,2,10/19/2016 12:00,10/19/2016 13:14,38.680202,-121.048576,,,0,Accident on Greenview Dr at Serrano Pkwy.,,Greenview Dr,R,El Dorado Hills,El Dorado,CA,95762,US,US/Pacific,KMHR,10/19/2016 11:52,62.6,,48,30.2,10,Calm,,,Scattered Clouds,FALSE,FALSE,FALSE,FALSE,FALSE,FALSE,FALSE,FALSE,FALSE,FALSE,FALSE,FALSE,FALSE,Day,Day,Day,Day,0.311192367
A-2650,MapQuest,201,3,7/10/2016 7:27,7/10/2016 11:31,38.182751,-122.134422,,,0,Accident on I-680 Southbound at Exit 68 Gold Hill Rd.,,Gold Hill Rd,R,Fairfield,Solano,CA,94534,US,US/Pacific,KAPC,7/10/2016 7:54,55.9,,77,30.05,10,Calm,,,Clear,FALSE,FALSE,FALSE,FALSE,FALSE,FALSE,FALSE,FALSE,FALSE,FALSE,FALSE,FALSE,FALSE,Day,Day,Day,Day,0.053484901
A-6568,MapQuest,241,2,12/9/2016 19:13,12/9/2016 19:43,37.983276,-122.041641,,,0.01,#3 lane blocked due to accident on CA-242 Southbound at Exit 1C Concord Ave.,,CA-242 S,R,Concord,Contra Costa,CA,94520,US,US/Pacific,KCCR,12/9/2016 19:00,57,,89,30.15,6,Calm,,0,Light Rain,FALSE,FALSE,FALSE,FALSE,TRUE,FALSE,FALSE,FALSE,FALSE,FALSE,FALSE,FALSE,FALSE,Night,Night,Night,Night,0.889859957
A-22192,MapQuest,241,2,9/27/2016 18:55,9/27/2016 19:25,37.332485,-122.055939,,,0,#2 lane blocked due to accident on CA-85 Southbound at I-280.,,CA-85 S,R,Cupertino,Santa Clara,CA,95014,US,US/Pacific,KNUQ,9/27/2016 18:56,73.9,,46,29.84,10,NW,5.8,,Clear,FALSE,FALSE,FALSE,FALSE,FALSE,FALSE,FALSE,FALSE,FALSE,FALSE,FALSE,FALSE,FALSE,Day,Day,Day,Day,0.093186244
A-9039,MapQuest,201,2,12/29/2016 22:17,12/29/2016 22:46,38.654133,-121.382942,,,0.01,Accident on Watt Ave at Myrtle Ave.,4900,Watt Ave,L,North Highlands,Sacramento,CA,95660-5110,US,US/Pacific,KMCC,12/29/2016 22:10,41,39,93,30.17,6,SE,3.5,,Clear,FALSE,FALSE,FALSE,FALSE,FALSE,FALSE,FALSE,FALSE,FALSE,FALSE,FALSE,TRUE,FALSE,Night,Night,Night,Night,0.416265206
A-25912,MapQuest,201,2,8/5/2016 4:28,8/5/2016 4:58,37.318287,-121.831551,,,0,Right hand shoulder blocked due to accident on US-101 Southbound at Exit 383 Tully Rd.,,Bayshore Fwy S,R,San Jose,Santa Clara,CA,95121,US,US/Pacific,KRHV,8/5/2016 6:48,59,,82,29.93,10,South,9.2,,Overcast,FALSE,FALSE,FALSE,FALSE,FALSE,FALSE,FALSE,FALSE,FALSE,FALSE,FALSE,FALSE,FALSE,Night,Night,Night,Night,0.457796627
A-16650,MapQuest,201,2,11/14/2016 12:48,11/14/2016 13:18,36.608089,-121.860504,,,0.01,Accident on CA-1 Southbound at Exit 403 CA-218 Canyon del Rey Blvd.,,CA-1 S,R,Monterey,Monterey,CA,93940,US,US/Pacific,KMRY,11/14/2016 12:54,60.1,,80,30.17,7,Calm,,,Clear,FALSE,FALSE,FALSE,FALSE,FALSE,FALSE,FALSE,FALSE,FALSE,FALSE,FALSE,FALSE,FALSE,Day,Day,Day,Day,0.165506192
A-24012,MapQuest,201,3,10/11/2016 16:15,10/11/2016 16:45,37.700405,-122.471291,,,0.01,Right hand shoulder blocked due to accident on I-280 Northbound at Exits 49 49B CA-1.,,I-280 N,R,Daly City,San Mateo,CA,94014,US,US/Pacific,KSFO,10/11/2016 15:56,64.9,,56,30.05,10,WSW,15,,Mostly Cloudy,FALSE,FALSE,FALSE,FALSE,FALSE,FALSE,FALSE,FALSE,FALSE,FALSE,FALSE,FALSE,FALSE,Day,Day,Day,Day,0.805163889
A-20544,MapQuest,201,2,9/16/2016 18:16,9/16/2016 18:46,38.659348,-121.32029,,,0,Accident on McKinney Way at Finney Ct.,5201,McKinney Way,L,Carmichael,Sacramento,CA,95608-0716,US,US/Pacific,KMCC,9/16/2016 18:15,89.6,,17,29.88,9,Calm,,,Clear,FALSE,FALSE,FALSE,FALSE,FALSE,FALSE,FALSE,FALSE,FALSE,FALSE,FALSE,FALSE,FALSE,Day,Day,Day,Day,0.772726592
A-3108,MapQuest,201,2,7/15/2016 0:48,7/15/2016 1:18,36.525269,-121.467873,,,0,Accident on US-101 El Camino Real Southbound at Exit 313 Alta St.,,El Camino Real S,R,Gonzales,Monterey,CA,93926,US,US/Pacific,KSNS,7/15/2016 0:53,54,,93,30.01,7,Calm,,,Overcast,FALSE,FALSE,FALSE,FALSE,FALSE,FALSE,FALSE,FALSE,FALSE,FALSE,FALSE,FALSE,FALSE,Night,Night,Night,Night,0.855359599
A-34509,MapQuest,201,3,4/13/2016 18:35,4/13/2016 19:50,38.540779,-121.510918,,,0.01,Accident on I-5 Southbound at Exit 516 Sutterville Rd.,,I-5 S,R,Sacramento,Sacramento,CA,95818,US,US/Pacific,KSAC,4/13/2016 18:53,63,,46,30.06,10,SSW,15,,Clear,FALSE,FALSE,FALSE,FALSE,FALSE,FALSE,FALSE,FALSE,FALSE,TRUE,FALSE,FALSE,FALSE,Day,Day,Day,Day,0.995388495
A-31281,MapQuest,201,2,3/24/2016 7:56,3/24/2016 8:26,37.255756,-121.875954,,,0.01,Right hand shoulder blocked due to accident on CA-85 Northbound at Exit 6 Almaden Plaza Way.,,Almaden Expy,R,San Jose,Santa Clara,CA,95118,US,US/Pacific,KRHV,3/24/2016 7:47,46.4,,87,30.3,10,Calm,,,Clear,FALSE,FALSE,FALSE,FALSE,FALSE,FALSE,FALSE,FALSE,FALSE,FALSE,FALSE,FALSE,FALSE,Day,Day,Day,Day,0.252203229
A-19074,MapQuest,201,2,11/28/2016 10:57,11/28/2016 11:26,38.018745,-121.942017,,,0.01,Accident on CA-4 Westbound at Exits 20A 20B Bailey Rd.,,Bailey Rd,R,Pittsburg,Contra Costa,CA,94565,US,US/Pacific,KCCR,11/28/2016 10:53,57,,67,30.01,10,WNW,9.2,,Scattered Clouds,FALSE,FALSE,FALSE,FALSE,TRUE,FALSE,FALSE,FALSE,FALSE,FALSE,FALSE,FALSE,FALSE,Day,Day,Day,Day,0.001884837
A-8354,MapQuest,201,2,12/23/2016 13:34,12/23/2016 14:03,38.773453,-121.242844,,,0.01,Accident on CA-65 Southbound at Exits 306A 306B I-80.,,I-80 E,R,Rocklin,Placer,CA,95677,US,US/Pacific,KLHM,12/23/2016 13:35,50,,76,29.76,10,SSE,26.5,,Overcast,FALSE,FALSE,FALSE,FALSE,FALSE,FALSE,FALSE,FALSE,FALSE,FALSE,FALSE,FALSE,FALSE,Day,Day,Day,Day,0.099507978
A-13340,MapQuest,201,2,10/24/2016 14:14,10/24/2016 14:44,38.615616,-122.427101,,,0,Accident on Howell Mountain Rd at Chiles Pope Valley Rd.,5849,Chiles Pope Valley Rd,L,Angwin,Napa,CA,94508,US,US/Pacific,KSTS,10/24/2016 13:53,57,,93,29.9,2.5,SSE,16.1,0.12,Rain,FALSE,FALSE,FALSE,FALSE,FALSE,FALSE,FALSE,FALSE,FALSE,FALSE,FALSE,FALSE,FALSE,Day,Day,Day,Day,0.153616744
A-30878,MapQuest,201,3,9/9/2016 17:32,9/9/2016 18:10,37.362038,-121.903572,,,0,Accident on I-880 Southbound at Exits 4B 4C US-101.,,I-880 S,R,San Jose,Santa Clara,CA,95112,US,US/Pacific,KSJC,9/9/2016 17:53,72,,55,29.97,10,WNW,11.5,,Clear,FALSE,FALSE,FALSE,FALSE,TRUE,FALSE,FALSE,FALSE,FALSE,FALSE,FALSE,FALSE,FALSE,Day,Day,Day,Day,0.851630442
A-19778,MapQuest,201,2,9/13/2016 11:55,9/13/2016 12:25,38.559837,-121.478371,,,0,Accident on US-50 Westbound at CA-99.,,US-50 W,R,Sacramento,Sacramento,CA,95817,US,US/Pacific,KSAC,9/13/2016 11:53,66,,48,29.95,10,SSE,5.8,,Clear,FALSE,FALSE,FALSE,FALSE,FALSE,FALSE,FALSE,FALSE,FALSE,FALSE,FALSE,FALSE,FALSE,Day,Day,Day,Day,0.520435501
A-630,MapQuest,201,3,3/12/2016 10:48,3/12/2016 14:00,41.060379,-81.554153,,,0.01,Right lane closed due to accident on I-77 I-76 before Exit 21A East Ave.,,I-77 N,R,Akron,Summit,OH,44307,US,US/Eastern,KAKR,3/12/2016 10:54,57,,51,30.2,10,North,3.5,,Clear,FALSE,FALSE,FALSE,FALSE,FALSE,FALSE,FALSE,FALSE,FALSE,FALSE,FALSE,FALSE,FALSE,Day,Day,Day,Day,0.152004382
A-22059,MapQuest,201,2,9/27/2016 9:00,9/27/2016 9:44,37.563744,-122.273224,,,0,Right hand shoulder blocked due to accident on CA-92 Westbound before Foster City Blvd.,,Foster City Blvd,R,San Mateo,San Mateo,CA,94404,US,US/Pacific,KSQL,9/27/2016 8:50,71.6,,50,29.93,10,Calm,,,Clear,FALSE,FALSE,FALSE,FALSE,FALSE,FALSE,FALSE,FALSE,FALSE,FALSE,FALSE,FALSE,FALSE,Day,Day,Day,Day,0.293309979
A-28844,MapQuest,201,2,8/26/2016 16:13,8/26/2016 17:28,38.642262,-121.270164,,,0,Accident on Fair Oaks Blvd Westbound before California Ave.,7965,California Ave,L,Fair Oaks,Sacramento,CA,95628-7136,US,US/Pacific,KMHR,8/26/2016 15:46,82.4,,35,29.87,10,SW,9.2,,Clear,FALSE,FALSE,FALSE,FALSE,FALSE,FALSE,FALSE,FALSE,FALSE,FALSE,FALSE,FALSE,FALSE,Day,Day,Day,Day,0.224337142
A-8189,MapQuest,241,2,12/22/2016 14:23,12/22/2016 14:52,37.991783,-122.077888,,,0.01,#2 lane blocked due to accident on CA-4 Eastbound at Exit 12A Pacheco Blvd.,,John Muir Pkwy E,R,Martinez,Contra Costa,CA,94553,US,US/Pacific,KCCR,12/22/2016 14:53,,,,29.93,,North,,,,FALSE,FALSE,FALSE,FALSE,TRUE,FALSE,FALSE,FALSE,FALSE,FALSE,FALSE,FALSE,FALSE,Day,Day,Day,Day,0.282328476
A-14484,MapQuest,201,2,11/1/2016 19:06,11/1/2016 19:36,36.978252,-121.977852,,,0,Accident on Woolpert Way at Halterman Ave.,1915,Halterman Ave,L,Santa Cruz,Santa Cruz,CA,95062-1952,US,US/Pacific,KWVI,11/1/2016 18:53,57,,89,30.1,10,WNW,5.8,,Clear,FALSE,FALSE,FALSE,FALSE,FALSE,FALSE,FALSE,FALSE,FALSE,FALSE,FALSE,FALSE,FALSE,Night,Night,Day,Day,0.666147377
A-35328,MapQuest,201,3,4/20/2016 13:26,4/20/2016 13:56,37.720703,-122.178223,,,0.01,Right hand shoulder blocked due to accident on I-880 Northbound at Exit 34 CA-61 Davis St.,,I-880 N,R,San Leandro,Alameda,CA,94577,US,US/Pacific,KOAK,4/20/2016 13:53,72,,31,29.95,10,WNW,11.5,,Scattered Clouds,FALSE,FALSE,FALSE,FALSE,FALSE,FALSE,FALSE,FALSE,FALSE,FALSE,FALSE,FALSE,FALSE,Day,Day,Day,Day,0.32338288
A-24292,MapQuest,201,3,10/13/2016 15:47,10/13/2016 16:16,37.720112,-121.658638,,,0.01,Right hand shoulder blocked due to accident on I-580 Westbound at Exit 59 Carroll Rd.,,I-580 W,R,Livermore,Alameda,CA,94551,US,US/Pacific,KLVK,10/13/2016 15:53,73,,44,29.97,10,West,11.5,,Clear,FALSE,FALSE,FALSE,FALSE,FALSE,FALSE,FALSE,FALSE,FALSE,FALSE,FALSE,FALSE,FALSE,Day,Day,Day,Day,0.716446244
A-21522,MapQuest,201,2,9/22/2016 12:57,9/22/2016 13:41,36.869812,-121.769974,,,0,Accident on CA-1 Southbound at Exit 423 Salinas Rd.,,Highway 1,R,Watsonville,Monterey,CA,95076,US,US/Pacific,KWVI,9/22/2016 12:53,68,,52,30.06,10,SSW,10.4,,Clear,FALSE,FALSE,FALSE,FALSE,FALSE,FALSE,FALSE,FALSE,FALSE,FALSE,FALSE,FALSE,FALSE,Day,Day,Day,Day,0.699029602
A-21278,MapQuest,201,3,9/21/2016 10:35,9/21/2016 11:04,37.50713,-121.967285,,,0,Accident on I-880 Southbound before Exit 15 Auto Mall Pkwy.,,Auto Mall Pkwy,R,Fremont,Alameda,CA,94538,US,US/Pacific,KPAO,9/21/2016 11:47,69.8,,53,29.97,10,NNW,13.8,,Scattered Clouds,FALSE,FALSE,FALSE,FALSE,FALSE,FALSE,FALSE,FALSE,FALSE,FALSE,FALSE,FALSE,FALSE,Day,Day,Day,Day,0.616702306
A-27059,MapQuest,201,2,8/12/2016 19:07,8/12/2016 19:37,36.669937,-121.63768,,,0,Accident on US-101 Westbound at Exit 327 CA-68 John St.,,US-101 N,R,Salinas,Monterey,CA,93901,US,US/Pacific,KSNS,8/12/2016 18:53,62.1,,75,30.02,10,West,10.4,,Clear,FALSE,FALSE,FALSE,FALSE,FALSE,FALSE,FALSE,FALSE,FALSE,FALSE,FALSE,FALSE,FALSE,Day,Day,Day,Day,0.118743962
A-23210,MapQuest,201,2,10/5/2016 11:09,10/5/2016 11:39,38.010288,-122.542107,,,0,Accident on US-101 Southbound at Exit 455 Manuel T Frietas Pkwy.,,Redwood Hwy,R,San Rafael,Marin,CA,94903,US,US/Pacific,KDVO,10/5/2016 11:15,69.8,,38,30.09,10,NNW,9.2,,Clear,FALSE,FALSE,FALSE,FALSE,TRUE,FALSE,FALSE,FALSE,FALSE,FALSE,FALSE,FALSE,FALSE,Day,Day,Day,Day,0.323286737
A-39237,MapQuest,201,3,5/20/2016 11:57,5/20/2016 12:27,37.633915,-122.438538,,,0,Right hand shoulder blocked due to accident on I-280 Southbound near Exit 44 Avalon Dr.,,I-280 S,R,San Bruno,San Mateo,CA,94066,US,US/Pacific,KSFO,5/20/2016 11:56,59,,58,29.87,10,West,26.5,,Mostly Cloudy,FALSE,FALSE,FALSE,FALSE,FALSE,FALSE,FALSE,FALSE,FALSE,FALSE,FALSE,FALSE,FALSE,Day,Day,Day,Day,0.504884548
A-24065,MapQuest,201,2,10/11/2016 23:16,10/11/2016 23:46,36.658733,-121.691978,,,0.01,Accident on Davis Rd at Hitchcock Rd.,499,Hitchcock Rd,L,Salinas,Monterey,CA,93908-9453,US,US/Pacific,KSNS,10/11/2016 22:53,55.9,,75,30.09,10,Calm,,,Clear,FALSE,FALSE,FALSE,FALSE,FALSE,FALSE,FALSE,FALSE,FALSE,FALSE,FALSE,FALSE,FALSE,Night,Night,Night,Night,0.591441587
A-12612,MapQuest,241,3,1/25/2017 11:03,1/25/2017 11:33,38.567577,-121.506386,,,0.01,#3 &amp; #6 lane blocked due to accident on I-5 Northbound at Exits 518 519A CA-99 CA-16.,2246,5th St,R,Sacramento,Sacramento,CA,95818-1222,US,US/Pacific,KSAC,1/25/2017 10:53,46,43.9,76,30.36,10,SSW,4.6,,Clear,FALSE,FALSE,FALSE,FALSE,FALSE,FALSE,FALSE,FALSE,FALSE,FALSE,FALSE,TRUE,FALSE,Day,Day,Day,Day,0.847994103
A-37572,MapQuest,201,2,5/5/2016 12:57,5/5/2016 13:27,37.674507,-122.389313,,,0.01,Accident on US-101 Northbound at Exit 426 Sierra Point Pkwy.,,US-101 N,R,Brisbane,San Mateo,CA,94005,US,US/Pacific,KSFO,5/5/2016 12:56,63,,72,29.87,10,SSW,13.8,,Mostly Cloudy,FALSE,FALSE,FALSE,FALSE,FALSE,FALSE,FALSE,FALSE,FALSE,FALSE,FALSE,FALSE,FALSE,Day,Day,Day,Day,0.375349346
A-31244,MapQuest,201,3,3/23/2016 20:23,3/23/2016 21:08,37.983253,-122.315956,,,0.01,Slow lane blocked due to accident on I-80 Eastbound at Exit 20 Richmond Pkwy. Approach with care.,,I-80 E,R,San Pablo,Contra Costa,CA,94806,US,US/Pacific,KCCR,3/23/2016 20:53,59,,55,30.23,10,SW,3.5,,Clear,FALSE,FALSE,FALSE,FALSE,TRUE,FALSE,FALSE,FALSE,FALSE,FALSE,FALSE,FALSE,FALSE,Night,Night,Night,Day,0.163452146
A-23253,MapQuest,201,3,10/5/2016 12:24,10/5/2016 13:08,37.882492,-122.308395,,,0,Accident on I-80 I-580 Westbound at Exits 12 13A I-580.,,Eastshore Fwy W,R,Berkeley,Alameda,CA,94710,US,US/Pacific,KOAK,10/5/2016 12:53,72,,37,30.08,10,West,12.7,,Clear,FALSE,FALSE,FALSE,FALSE,TRUE,FALSE,FALSE,FALSE,FALSE,FALSE,FALSE,FALSE,FALSE,Day,Day,Day,Day,0.374992665
A-20503,MapQuest,201,2,9/16/2016 15:32,9/16/2016 16:02,38.65329,-121.308319,,,0,Accident on Dewey Dr at Will Rogers Dr.,4922,Dewey Dr,R,Fair Oaks,Sacramento,CA,95628-4403,US,US/Pacific,KMHR,9/16/2016 15:45,89.6,,21,29.88,10,West,6.9,,Clear,FALSE,FALSE,FALSE,FALSE,FALSE,FALSE,FALSE,FALSE,FALSE,FALSE,FALSE,FALSE,FALSE,Day,Day,Day,Day,0.982436589
A-4246,MapQuest,201,2,7/26/2016 9:51,7/26/2016 10:37,37.973221,-122.046585,,,0,Right hand shoulder blocked due to accident on CA-242 Southbound after Exit 1C Concord Ave.,,CA-242 S,R,Concord,Contra Costa,CA,94520,US,US/Pacific,KCCR,7/26/2016 9:53,77,,43,29.87,10,Calm,,,Clear,FALSE,FALSE,FALSE,FALSE,FALSE,FALSE,FALSE,FALSE,FALSE,FALSE,FALSE,FALSE,FALSE,Day,Day,Day,Day,0.439952666
A-4464,MapQuest,201,2,7/27/2016 16:05,7/27/2016 17:20,38.586945,-121.399155,,,0,Accident on Matheson Way at Evelyn Ln.,1198,Evelyn Ln,R,Sacramento,Sacramento,CA,95864-3706,US,US/Pacific,KMHR,7/27/2016 15:50,104,,14,29.8,10,West,9.2,,Partly Cloudy,FALSE,FALSE,FALSE,FALSE,FALSE,FALSE,FALSE,FALSE,FALSE,FALSE,FALSE,FALSE,FALSE,Day,Day,Day,Day,0.501375793
A-20930,MapQuest,201,3,9/19/2016 11:47,9/19/2016 12:17,38.48119,-121.51075,,,0,Accident on I-5 Northbound at Exit 512 Pocket Rd.,,I-5 S,R,Sacramento,Sacramento,CA,95831,US,US/Pacific,KSAC,9/19/2016 11:53,89.1,,24,29.92,10,Variable,4.6,,Clear,FALSE,FALSE,FALSE,FALSE,FALSE,FALSE,FALSE,FALSE,FALSE,FALSE,FALSE,FALSE,FALSE,Day,Day,Day,Day,0.689647582
A-38412,MapQuest,201,3,5/12/2016 17:33,5/12/2016 18:48,37.763535,-121.418747,,,0.01,Accident on I-205 Eastbound at Exit 9 MacArthur Dr.,,I-205 E,R,Tracy,San Joaquin,CA,95304,US,US/Pacific,KSCK,5/12/2016 17:55,84.9,,34,29.9,10,WNW,12.7,,Clear,FALSE,FALSE,FALSE,FALSE,TRUE,FALSE,FALSE,FALSE,FALSE,FALSE,FALSE,FALSE,FALSE,Day,Day,Day,Day,0.980640195
A-36848,MapQuest,229,2,4/29/2016 19:43,4/29/2016 20:28,36.983906,-121.941086,,,0.01,Slow traffic and right hand shoulder blocked due to accident on CA-1 Southbound at Exit 436 Park Ave.,,State Highway 1,R,Capitola,Santa Cruz,CA,95010,US,US/Pacific,KWVI,4/29/2016 19:53,57.9,,70,29.95,10,Calm,,,Clear,FALSE,FALSE,FALSE,FALSE,TRUE,FALSE,FALSE,FALSE,FALSE,FALSE,FALSE,FALSE,FALSE,Day,Day,Day,Day,0.539065574
A-17211,MapQuest,201,3,11/16/2016 21:55,11/16/2016 22:40,37.987411,-121.344376,,,0.01,Right hand shoulder blocked due to accident on I-5 Northbound after Exit 476 March Ln.,,I-5 N,R,Stockton,San Joaquin,CA,95207,US,US/Pacific,KSCK,11/16/2016 21:55,46,43.1,79,30.07,10,West,5.8,,Clear,FALSE,FALSE,FALSE,FALSE,FALSE,FALSE,FALSE,FALSE,FALSE,FALSE,FALSE,FALSE,FALSE,Night,Night,Night,Night,0.681105432
A-2209,MapQuest,222,2,7/5/2016 20:29,7/5/2016 21:44,38.642338,-121.367226,,,0,Queueing traffic due to accident on Auburn Blvd Eastbound at Winding Way.,4202,Winding Way,R,Sacramento,Sacramento,CA,95841-4400,US,US/Pacific,KMCC,7/5/2016 20:35,73.4,,44,29.86,10,South,11.5,,Clear,FALSE,FALSE,FALSE,FALSE,FALSE,FALSE,FALSE,FALSE,FALSE,FALSE,FALSE,TRUE,FALSE,Day,Day,Day,Day,0.127687584
A-39431,MapQuest,203,2,5/21/2016 8:30,5/21/2016 13:17,37.769375,-122.405533,,,0.01,Multi-vehicle accident on US-101 Northbound at I-80.,15,San Bruno Ave,R,San Francisco,San Francisco,CA,94103,US,US/Pacific,KSFO,5/21/2016 8:56,57,,69,30.01,10,West,6.9,,Mostly Cloudy,FALSE,FALSE,FALSE,FALSE,FALSE,FALSE,FALSE,FALSE,FALSE,FALSE,FALSE,FALSE,FALSE,Day,Day,Day,Day,0.136346719
A-12522,MapQuest,201,2,1/24/2017 20:10,1/24/2017 20:55,38.605511,-121.383064,,,0.01,Accident on Watt Ave at Cody Way.,2231,Watt Ave,R,Sacramento,Sacramento,CA,95825-0502,US,US/Pacific,KMCC,1/24/2017 20:10,42.8,,87,30.19,10,Calm,,,Clear,FALSE,FALSE,FALSE,FALSE,FALSE,FALSE,FALSE,FALSE,FALSE,FALSE,FALSE,FALSE,FALSE,Night,Night,Night,Night,0.980466537
A-7844,MapQuest,201,2,12/20/2016 10:18,12/20/2016 10:48,38.021763,-121.966034,,,0.01,Accident on Willow Pass Rd at CA-4.,,San Marco Blvd,R,Pittsburg,Contra Costa,CA,94565,US,US/Pacific,KCCR,12/20/2016 9:53,48,,66,30.33,9,North,8.1,,Clear,FALSE,FALSE,FALSE,FALSE,FALSE,FALSE,FALSE,FALSE,FALSE,FALSE,FALSE,TRUE,FALSE,Day,Day,Day,Day,0.464521215
A-8453,MapQuest,201,2,12/23/2016 18:44,12/23/2016 19:14,38.695202,-120.998116,,,0,Accident on La Canada Dr at Royal Park Dr.,2501,Royal Park Dr,R,Cameron Park,El Dorado,CA,95682-9221,US,US/Pacific,KPVF,12/23/2016 18:35,39.2,32,100,29.73,0.2,SSW,11.5,,Overcast,FALSE,FALSE,FALSE,FALSE,FALSE,FALSE,FALSE,FALSE,FALSE,FALSE,FALSE,FALSE,FALSE,Night,Night,Night,Night,0.0839469
A-22505,MapQuest,201,2,9/29/2016 16:39,9/29/2016 17:08,36.988613,-121.490913,,,0,Right hand shoulder blocked due to accident on CA-152 Pacheco Pass Hwy Westbound at County Hwy-G7 Bloomfield Ave.,4001,Pacheco Pass Hwy,L,Gilroy,Santa Clara,CA,95020-8041,US,US/Pacific,KE16,,,,,,,,,,,FALSE,FALSE,FALSE,FALSE,FALSE,FALSE,FALSE,FALSE,FALSE,TRUE,FALSE,FALSE,FALSE,Day,Day,Day,Day,0.751506413
A-30667,MapQuest,201,2,9/8/2016 18:54,9/8/2016 19:30,38.44313,-122.721939,,,0,Accident on US-101 Northbound at Exit 490 College Ave.,,US-101 N,R,Santa Rosa,Sonoma,CA,95401,US,US/Pacific,KSTS,9/8/2016 18:53,63,,72,30,10,South,9.2,,Partly Cloudy,FALSE,FALSE,FALSE,FALSE,TRUE,FALSE,FALSE,FALSE,FALSE,FALSE,FALSE,FALSE,FALSE,Day,Day,Day,Day,0.065016347
A-26624,MapQuest,201,2,8/10/2016 17:44,8/10/2016 18:29,38.558956,-122.820183,,,0,Accident on US-101 Northbound at Exit 499 Arata Ln.,,US-101 N,R,Windsor,Sonoma,CA,95492,US,US/Pacific,KSTS,8/10/2016 17:53,73,,49,29.84,10,South,13.8,,Clear,FALSE,FALSE,FALSE,FALSE,TRUE,FALSE,FALSE,FALSE,FALSE,FALSE,FALSE,FALSE,FALSE,Day,Day,Day,Day,0.823757837
A-12393,MapQuest,241,2,1/23/2017 21:26,1/23/2017 21:55,38.043591,-122.535095,,,0.01,#2 lane blocked due to accident on US-101 Northbound at Exit 458 Nave Dr.,,Redwood Hwy S,R,Novato,Marin,CA,94949,US,US/Pacific,KDVO,1/23/2017 21:35,42.8,40.1,93,29.89,10,SSW,4.6,,Mostly Cloudy,FALSE,FALSE,FALSE,FALSE,FALSE,FALSE,FALSE,FALSE,FALSE,FALSE,FALSE,FALSE,FALSE,Night,Night,Night,Night,0.439414787
A-11833,MapQuest,201,2,1/19/2017 16:59,1/19/2017 17:43,38.607872,-121.355278,,,0.01,Accident on Mission Ave at Melvin Dr.,2321,Mission Ave,L,Carmichael,Sacramento,CA,95608-4910,US,US/Pacific,KMCC,1/19/2017 16:50,53.6,,72,29.83,10,South,9.2,,Mostly Cloudy,FALSE,FALSE,FALSE,FALSE,FALSE,FALSE,FALSE,FALSE,FALSE,FALSE,FALSE,FALSE,FALSE,Day,Day,Day,Day,0.928742693
A-17435,MapQuest,222,3,11/17/2016 23:30,11/18/2016 0:00,37.325176,-121.886246,,,0.01,Queueing traffic and #1 lane blocked due to accident on I-280 Northbound at Exits 2B 3A 3B CA-87 Guadalupe Pkwy.,,Sinclair Fwy N,R,San Jose,Santa Clara,CA,95110,US,US/Pacific,KSJC,11/17/2016 23:53,46.9,,68,30.07,10,East,4.6,,Clear,FALSE,FALSE,FALSE,FALSE,FALSE,FALSE,FALSE,FALSE,FALSE,FALSE,FALSE,FALSE,FALSE,Night,Night,Night,Night,0.416888321
A-39382,MapQuest,201,3,5/20/2016 21:35,5/20/2016 22:05,37.8764,-122.046364,,,0.01,Accident on I-680 Northbound at Exit 44 Broadway.,,I-680 N,R,Alamo,Contra Costa,CA,94507,US,US/Pacific,KCCR,5/20/2016 21:53,55,,64,29.88,10,SW,8.1,,Scattered Clouds,FALSE,FALSE,FALSE,FALSE,FALSE,FALSE,FALSE,FALSE,FALSE,FALSE,FALSE,FALSE,FALSE,Night,Night,Night,Day,0.64796517
A-32789,MapQuest,201,2,4/3/2016 16:21,4/3/2016 17:21,38.31662,-122.307472,,,0,Accident on CA-29 Southbound at Exit 19 Redwood Rd.,,CA-29 S,R,Napa,Napa,CA,94558,US,US/Pacific,KAPC,4/3/2016 15:54,63,,81,30.05,10,SSW,12.7,,Clear,FALSE,FALSE,FALSE,FALSE,TRUE,FALSE,FALSE,FALSE,FALSE,FALSE,FALSE,FALSE,FALSE,Day,Day,Day,Day,0.68506683
A-35918,MapQuest,201,2,4/24/2016 14:24,4/24/2016 15:24,38.376072,-121.45446,,,0.01,Accident on County Hwy-J8 Franklin Blvd at Hood Franklin Rd.,10467,Franklin Blvd,R,Elk Grove,Sacramento,CA,95757-9702,US,US/Pacific,KSAC,4/24/2016 14:53,73.9,,28,29.93,10,Variable,3.5,,Partly Cloudy,FALSE,FALSE,FALSE,FALSE,FALSE,FALSE,FALSE,FALSE,FALSE,TRUE,FALSE,FALSE,FALSE,Day,Day,Day,Day,0.116654832
A-6931,MapQuest,201,3,12/13/2016 9:44,12/13/2016 10:14,37.73254,-122.40509,,,0.01,Accident on I-280 Northbound near Exits 54 54A 54B US-101.,,James Lick Fwy N,R,San Francisco,San Francisco,CA,94134,US,US/Pacific,KSFO,12/13/2016 9:56,52,,83,30.15,10,North,10.4,,Mostly Cloudy,FALSE,FALSE,FALSE,FALSE,FALSE,FALSE,FALSE,FALSE,FALSE,FALSE,FALSE,FALSE,FALSE,Day,Day,Day,Day,0.326358132
A-30214,MapQuest,201,2,9/6/2016 20:08,9/6/2016 21:23,38.37925,-120.986145,,,0,Accident on CA-104 Twin Cities Rd Eastbound at Michigan Bar Rd.,2510,Twin Cities Rd,L,Ione,Amador,CA,95640,US,US/Pacific,KMHR,9/6/2016 19:50,84.2,,18,29.79,10,NNW,4.6,,Clear,FALSE,FALSE,FALSE,FALSE,FALSE,FALSE,FALSE,FALSE,FALSE,FALSE,FALSE,FALSE,FALSE,Night,Night,Day,Day,0.369879362
A-34517,MapQuest,201,2,4/13/2016 18:49,4/13/2016 20:04,38.683067,-121.336601,,,0.01,Slow lane blocked due to accident on Greenback Ln at Elkhorn Blvd.,,Elkhorn Blvd,R,Sacramento,Sacramento,CA,95842,US,US/Pacific,KMCC,4/13/2016 18:50,66.2,,37,30.06,9,SSW,15,,Clear,FALSE,FALSE,FALSE,FALSE,FALSE,FALSE,FALSE,FALSE,FALSE,FALSE,FALSE,FALSE,FALSE,Day,Day,Day,Day,0.623437507
A-32136,MapQuest,201,3,3/30/2016 11:08,3/30/2016 11:38,37.632156,-122.437218,,,0,Right hand shoulder blocked due to accident on I-280 Southbound at Exits 43A 43B I-380.,,I-280 S,R,San Bruno,San Mateo,CA,94066,US,US/Pacific,KSFO,3/30/2016 10:56,60.1,,67,30.02,10,WNW,12.7,,Mostly Cloudy,FALSE,FALSE,FALSE,FALSE,FALSE,FALSE,FALSE,FALSE,FALSE,FALSE,FALSE,FALSE,FALSE,Day,Day,Day,Day,0.556905946
A-35151,MapQuest,201,3,4/19/2016 15:33,4/19/2016 16:21,37.325665,-122.00518,,,0.01,Lane blocked on exit ramp due to accident on I-280 Southbound at I-280 Exit 9 / Lawrence Expy.,,I-280 S,R,Santa Clara,Santa Clara,CA,95051,US,US/Pacific,KSJC,4/19/2016 15:53,78.1,,20,29.91,10,WNW,10.4,,Mostly Cloudy,FALSE,FALSE,FALSE,FALSE,FALSE,FALSE,FALSE,FALSE,FALSE,FALSE,FALSE,FALSE,FALSE,Day,Day,Day,Day,0.552006831
A-15401,MapQuest,201,3,11/6/2016 16:34,11/6/2016 17:18,37.396164,-121.907578,,,0.01,Accident on I-880 Northbound at Exit 7 County Hwy-G4 Montague Expy.,,I-880 N,R,San Jose,Santa Clara,CA,95131,US,US/Pacific,KSJC,11/6/2016 16:53,69.1,,65,30.1,10,NW,4.6,,Mostly Cloudy,FALSE,FALSE,FALSE,FALSE,FALSE,FALSE,FALSE,FALSE,FALSE,FALSE,FALSE,FALSE,FALSE,Day,Day,Day,Day,0.98805174
A-16132,MapQuest,201,2,11/10/2016 11:10,11/10/2016 11:40,38.022038,-121.96019,,,0.01,Accident on CA-4 Westbound at Exit 19 Willow Pass Rd.,,CA-4 W,R,Pittsburg,Contra Costa,CA,94565,US,US/Pacific,KCCR,11/10/2016 10:53,68,,61,30.03,10,Variable,4.6,,Clear,FALSE,FALSE,FALSE,FALSE,FALSE,FALSE,FALSE,FALSE,FALSE,FALSE,FALSE,FALSE,FALSE,Day,Day,Day,Day,0.714859805
A-27987,MapQuest,241,2,8/19/2016 13:21,8/19/2016 13:51,37.35236,-121.968605,,,0,#1 lane blocked due to accident on San Thomas Expy Northbound at CA-82 El Camino Real.,,San Tomas Expy,R,Santa Clara,Santa Clara,CA,95050,US,US/Pacific,KSJC,8/19/2016 12:53,75.9,,50,29.91,10,WNW,5.8,,Clear,FALSE,FALSE,TRUE,FALSE,FALSE,FALSE,FALSE,FALSE,FALSE,FALSE,FALSE,TRUE,FALSE,Day,Day,Day,Day,0.38834593
A-21467,MapQuest,229,3,9/22/2016 10:39,9/22/2016 11:23,37.429306,-121.917831,,,0,Slow traffic and #2 lane blocked due to accident on I-880 Northbound after Exits 8A 8B 8C CA-237.,,Nimitz Fwy N,R,Milpitas,Santa Clara,CA,95035,US,US/Pacific,KSJC,9/22/2016 10:53,64.9,,50,30.08,10,Variable,6.9,,Scattered Clouds,FALSE,FALSE,FALSE,FALSE,FALSE,FALSE,FALSE,FALSE,FALSE,FALSE,FALSE,FALSE,FALSE,Day,Day,Day,Day,0.157988377
A-1829,MapQuest,222,2,6/30/2016 20:09,6/30/2016 21:24,38.34066,-121.334259,,,0,Queueing traffic due to accident on CA-99 Northbound at Exit 281 Dillard Rd.,,CA-99 N,R,Wilton,Sacramento,CA,95693,US,US/Pacific,KMHR,6/30/2016 20:55,84.2,,40,29.71,10,SSW,9.2,,Clear,FALSE,FALSE,FALSE,FALSE,TRUE,FALSE,FALSE,FALSE,FALSE,FALSE,FALSE,FALSE,FALSE,Day,Day,Day,Day,0.033130583
A-13282,MapQuest,241,3,10/24/2016 0:15,10/24/2016 0:45,37.631477,-122.084183,,,0.01,Lane blocked and queueing traffic due to accident on I-880 Southbound at Exit 26 Tennyson Rd.,,W Tennyson Rd,R,Hayward,Alameda,CA,94544,US,US/Pacific,KHWD,10/24/2016 0:54,60.1,,72,29.94,10,SE,5.8,,Clear,FALSE,FALSE,FALSE,FALSE,FALSE,FALSE,FALSE,FALSE,FALSE,FALSE,FALSE,FALSE,FALSE,Night,Night,Night,Night,0.825365222
A-23554,MapQuest,201,2,10/7/2016 9:57,10/7/2016 10:27,38.246796,-122.627808,,,0,Accident on US-101 Southbound at Exit 474 Washington St.,,E Washington St,R,Petaluma,Sonoma,CA,94952,US,US/Pacific,KO69,10/7/2016 9:55,59,,67,30.06,10,NW,3.5,,,FALSE,FALSE,FALSE,FALSE,FALSE,FALSE,FALSE,FALSE,FALSE,FALSE,FALSE,FALSE,FALSE,Day,Day,Day,Day,0.654597727
A-32989,MapQuest,201,2,4/4/2016 22:37,4/4/2016 23:22,37.986977,-122.316872,,,0,Right hand shoulder blocked due to accident on Richmond Pkwy Eastbound at Blume Dr.,,Richmond Pkwy,R,San Pablo,Contra Costa,CA,94806,US,US/Pacific,KCCR,4/4/2016 22:53,60.1,,62,30.16,10,South,3.5,,Clear,FALSE,FALSE,FALSE,FALSE,FALSE,FALSE,FALSE,FALSE,FALSE,FALSE,FALSE,FALSE,FALSE,Night,Night,Night,Night,0.618522696
A-10005,MapQuest,241,3,1/6/2017 16:55,1/6/2017 17:25,37.693237,-122.052116,,,0.01,Lane blocked due to accident on I-580 Eastbound at Exit 37 Grove Way.,,I-580 E,R,Castro Valley,Alameda,CA,94552,US,US/Pacific,KHWD,1/6/2017 16:54,46.9,,52,30.08,10,ENE,9.2,,Mostly Cloudy,FALSE,FALSE,FALSE,FALSE,FALSE,FALSE,FALSE,FALSE,FALSE,FALSE,FALSE,FALSE,FALSE,Day,Day,Day,Day,0.17313259
A-28958,MapQuest,201,3,8/28/2016 0:14,8/28/2016 0:44,37.890163,-122.308296,,,0,Right hand shoulder blocked due to accident on I-80 I-580 Westbound at Exits 13 13B I-80. Expect delays.,,Eastshore Fwy W,R,Berkeley,Alameda,CA,94710,US,US/Pacific,KOAK,8/28/2016 0:22,63,,75,30.04,10,West,9.2,,Mostly Cloudy,FALSE,FALSE,FALSE,FALSE,FALSE,FALSE,FALSE,FALSE,FALSE,FALSE,FALSE,FALSE,FALSE,Night,Night,Night,Night,0.580184328
A-33427,MapQuest,201,2,4/6/2016 21:38,4/6/2016 22:25,37.428417,-122.101387,,,0,Accident on US-101 Southbound at Exits 400B 400C San Antonio Rd.,,US-101 N,R,Palo Alto,Santa Clara,CA,94303,US,US/Pacific,KPAO,4/6/2016 20:47,68,,64,29.95,10,Calm,,,Mostly Cloudy,FALSE,FALSE,FALSE,FALSE,FALSE,FALSE,FALSE,FALSE,FALSE,FALSE,FALSE,FALSE,FALSE,Night,Night,Night,Night,0.192242043
A-36241,MapQuest,201,3,4/26/2016 15:17,4/26/2016 16:32,37.742802,-121.537666,,,0.01,Accident on I-205 Eastbound at Exit 2 Mountain House Pkwy.,,I-205 E,R,Tracy,San Joaquin,CA,95391,US,US/Pacific,KLVK,4/26/2016 14:53,66.9,,37,30.02,10,West,13.8,,Clear,FALSE,FALSE,FALSE,FALSE,FALSE,FALSE,FALSE,FALSE,FALSE,FALSE,FALSE,FALSE,FALSE,Day,Day,Day,Day,0.391102174
A-17366,MapQuest,201,2,11/17/2016 18:11,11/17/2016 18:41,37.327358,-121.894058,,,0.01,Accident on CA-87 Guadalupe Pkwy at Exits 4 5 6 I-280.,360,W San Carlos St,L,San Jose,Santa Clara,CA,95110-2628,US,US/Pacific,KSJC,11/17/2016 17:53,57,,55,30.06,10,West,5.8,,Partly Cloudy,FALSE,FALSE,FALSE,FALSE,FALSE,FALSE,FALSE,FALSE,FALSE,FALSE,FALSE,FALSE,FALSE,Night,Night,Night,Day,0.757575414
A-10266,MapQuest,201,3,1/8/2017 7:25,1/8/2017 7:55,37.729954,-122.439507,,,0.01,Right hand shoulder blocked due to accident on I-280 Southbound at Exit 52 Bosworth St.,,John F Foran Fwy,R,San Francisco,San Francisco,CA,94112,US,US/Pacific,KSFO,1/8/2017 7:10,63,,81,29.85,8,South,23,0,Overcast,FALSE,FALSE,FALSE,FALSE,FALSE,FALSE,FALSE,FALSE,FALSE,FALSE,FALSE,FALSE,FALSE,Day,Day,Day,Day,0.332467796
A-6547,MapQuest,201,3,12/9/2016 18:04,12/9/2016 18:33,37.778091,-122.401176,,,0.01,Accident on I-80 Eastbound at Exits 2 2A Harrison St.,,James Lick Fwy N,R,San Francisco,San Francisco,CA,94107,US,US/Pacific,KOAK,12/9/2016 17:53,61,,83,30.16,10,Calm,,,Mostly Cloudy,FALSE,FALSE,FALSE,FALSE,FALSE,FALSE,FALSE,FALSE,FALSE,FALSE,FALSE,FALSE,FALSE,Night,Night,Night,Day,0.620565442
A-13402,MapQuest,201,2,10/24/2016 22:27,10/24/2016 22:57,37.396698,-121.937645,,,0.01,Accident on County Hwy-G4 Montague Expy Eastbound at Orchard Dr.,30,Montague Expy,R,San Jose,Santa Clara,CA,95134-2002,US,US/Pacific,KSJC,10/24/2016 22:53,64,,58,30.01,10,South,11.5,,Mostly Cloudy,FALSE,FALSE,FALSE,FALSE,FALSE,FALSE,FALSE,FALSE,FALSE,FALSE,FALSE,FALSE,FALSE,Night,Night,Night,Night,0.440828737
A-2704,MapQuest,236,2,7/11/2016 11:02,7/11/2016 11:47,37.722588,-121.100273,,,0,Heavy traffic due to accident on CA-99 Northbound at Exit 233 Broadway.,,CA-99 N,R,Salida,Stanislaus,CA,95368,US,US/Pacific,KMOD,7/11/2016 10:53,79,,34,29.92,10,West,10.4,,Clear,FALSE,FALSE,FALSE,FALSE,FALSE,FALSE,FALSE,FALSE,FALSE,FALSE,FALSE,FALSE,FALSE,Day,Day,Day,Day,0.737391206
A-32699,MapQuest,201,2,4/2/2016 16:45,4/2/2016 17:45,38.570698,-121.468521,,,0,Accident on I-80 Bus Capital City Fwy Southbound at Exits 6C 7A 30th St. Expect delays.,,Capital City Fwy W,R,Sacramento,Sacramento,CA,95816,US,US/Pacific,KSAC,4/2/2016 16:53,75,,50,30.08,10,SSW,5.8,,Clear,FALSE,FALSE,FALSE,FALSE,FALSE,FALSE,FALSE,FALSE,FALSE,FALSE,FALSE,FALSE,FALSE,Day,Day,Day,Day,0.255120832
A-19969,MapQuest,201,3,9/14/2016 11:54,9/14/2016 12:24,37.89603,-122.070671,,,0,Accident on I-680 Northbound at CA-24.,,I-680 S,R,Walnut Creek,Contra Costa,CA,94595,US,US/Pacific,KCCR,9/14/2016 11:53,73,,41,30.06,10,NNW,6.9,,Clear,FALSE,FALSE,FALSE,FALSE,FALSE,FALSE,FALSE,FALSE,FALSE,FALSE,FALSE,FALSE,FALSE,Day,Day,Day,Day,0.551340971
A-31447,MapQuest,201,2,3/24/2016 21:22,3/24/2016 22:37,38.640087,-121.429153,,,0.01,Accident on North Ave at Marysville Blvd.,,North Ave,R,Sacramento,Sacramento,CA,95838,US,US/Pacific,KMCC,3/24/2016 21:30,57.2,,67,30.13,10,SW,3.5,,Clear,FALSE,FALSE,FALSE,FALSE,FALSE,FALSE,FALSE,FALSE,FALSE,FALSE,FALSE,FALSE,FALSE,Night,Night,Night,Night,0.727786624
A-28539,MapQuest,201,2,8/24/2016 10:55,8/24/2016 11:55,38.446247,-120.954536,,,0,Accident on Irish Hill Rd at Carbondale Rd.,,Irish Hill Rd,R,Plymouth,Amador,CA,95669,US,US/Pacific,KPVF,8/24/2016 10:55,82.4,,14,30.15,10,WSW,4.6,,Clear,FALSE,FALSE,FALSE,FALSE,FALSE,FALSE,FALSE,FALSE,FALSE,FALSE,FALSE,FALSE,FALSE,Day,Day,Day,Day,0.559185054
A-35766,MapQuest,241,3,4/22/2016 14:26,4/22/2016 14:56,37.31665,-121.95002,,,0.01,One lane blocked due to debris on road and accident on I-280 Southbound at Exit 6 Winchester Blvd.,,S Winchester Blvd,R,San Jose,Santa Clara,CA,95128,US,US/Pacific,KSJC,4/22/2016 14:53,60.1,,67,29.94,10,WSW,10.4,0.01,Light Rain,FALSE,FALSE,FALSE,FALSE,FALSE,FALSE,FALSE,FALSE,FALSE,FALSE,FALSE,FALSE,FALSE,Day,Day,Day,Day,0.806993489
A-24798,MapQuest,241,2,10/16/2016 10:06,10/16/2016 10:35,37.158798,-121.982635,,,0.01,#1 lane blocked due to accident on CA-17 Santa Cruz Hwy Northbound at Oneda Ct.,21297,Santa Cruz Hwy,L,Los Gatos,Santa Clara,CA,95033,US,US/Pacific,KSJC,10/16/2016 9:53,64,,90,29.83,7,ESE,10.4,0.04,Light Rain,FALSE,FALSE,FALSE,FALSE,FALSE,FALSE,FALSE,FALSE,FALSE,FALSE,FALSE,FALSE,FALSE,Day,Day,Day,Day,0.155851443
A-22787,MapQuest,201,2,10/2/2016 17:49,10/2/2016 18:34,38.473328,-120.626007,,,0,Accident on Rams Horn Grade both ways at Shake Ridge Rd.,18398,Rams Horn Grade,R,Volcano,Amador,CA,95689-9701,US,US/Pacific,KPVF,10/2/2016 17:55,50,,94,30.01,10,SE,5.8,,Partly Cloudy,FALSE,FALSE,FALSE,FALSE,FALSE,FALSE,FALSE,FALSE,FALSE,FALSE,FALSE,FALSE,FALSE,Day,Day,Day,Day,0.319828884
A-14143,MapQuest,241,3,10/31/2016 8:41,10/31/2016 9:26,38.224499,-122.126534,,,0.01,#1 and #2 lane blocked due to accident on I-80 Westbound at Exit 41 Suisun Valley Rd.,,I-80 W,R,Fairfield,Solano,CA,94534,US,US/Pacific,KAPC,10/31/2016 8:54,55,,89,30.08,10,North,3.5,,Mostly Cloudy,FALSE,FALSE,FALSE,FALSE,TRUE,FALSE,FALSE,FALSE,FALSE,FALSE,FALSE,FALSE,FALSE,Day,Day,Day,Day,0.300776201
A-19333,MapQuest,241,3,11/29/2016 20:14,11/29/2016 20:43,37.819473,-121.993095,,,0.01,#1 lane blocked due to accident on I-680 Northbound at Exit 39 Diablo Rd.,,I-680 N,R,Danville,Contra Costa,CA,94526,US,US/Pacific,KCCR,11/29/2016 19:53,46,,71,30.09,10,Calm,,,Clear,FALSE,FALSE,FALSE,FALSE,TRUE,FALSE,FALSE,FALSE,FALSE,FALSE,FALSE,FALSE,FALSE,Night,Night,Night,Night,0.304756784
A-35646,MapQuest,201,2,4/21/2016 21:43,4/21/2016 22:28,37.488007,-122.208588,,,0.01,Accident on US-101 Northbound at Exit 408 CA-84 Woodside Rd.,,Bayshore Fwy S,R,Redwood City,San Mateo,CA,94063,US,US/Pacific,KSQL,4/21/2016 21:35,62.6,,63,29.9,10,SW,6.9,,Clear,FALSE,FALSE,FALSE,FALSE,FALSE,FALSE,FALSE,FALSE,FALSE,FALSE,FALSE,FALSE,FALSE,Night,Night,Night,Night,0.178052691
A-28416,MapQuest,201,3,8/23/2016 13:02,8/23/2016 13:47,37.387672,-121.86618,,,0,Right hand shoulder blocked due to accident on I-680 Northbound before Exit 4 Berryessa Rd.,,I-680 N,R,San Jose,Santa Clara,CA,95132,US,US/Pacific,KSJC,8/23/2016 12:53,78.1,,42,30.06,10,Calm,,,Clear,FALSE,FALSE,FALSE,FALSE,FALSE,FALSE,FALSE,FALSE,FALSE,FALSE,FALSE,FALSE,FALSE,Day,Day,Day,Day,0.751146974
A-35043,MapQuest,201,2,4/18/2016 23:23,4/19/2016 0:10,37.253017,-121.943726,,,0.01,Accident on CA-85 Southbound at Exits 10 11 Bascom Ave.,,CA-85 S,R,San Jose,Santa Clara,CA,95124,US,US/Pacific,KSJC,4/18/2016 23:53,64,,56,30.04,10,Calm,,,Scattered Clouds,FALSE,FALSE,FALSE,FALSE,FALSE,FALSE,FALSE,FALSE,FALSE,FALSE,FALSE,FALSE,FALSE,Night,Night,Night,Night,0.156166759
A-7748,MapQuest,201,3,12/19/2016 14:40,12/19/2016 15:09,38.082993,-122.233208,,,0.01,Right hand shoulder blocked due to accident on I-80 Eastbound at Exits 29B 29C Lincoln Rd.,,I-80 E,R,Vallejo,Solano,CA,94591,US,US/Pacific,KAPC,12/19/2016 14:54,54,,51,30.35,10,East,9.2,,Clear,FALSE,FALSE,FALSE,FALSE,TRUE,FALSE,FALSE,FALSE,FALSE,FALSE,FALSE,FALSE,FALSE,Day,Day,Day,Day,0.116714713
A-38530,MapQuest,241,3,5/16/2016 11:18,5/16/2016 11:48,37.316216,-121.968384,,,0.01,Lane blocked due to accident on I-280 Southbound near Exit 7 Saratoga Ave.,,I-280 S,R,San Jose,Santa Clara,CA,95117,US,US/Pacific,KSJC,5/16/2016 10:53,69.1,,54,29.98,10,Variable,3.5,,Clear,FALSE,FALSE,FALSE,FALSE,FALSE,FALSE,FALSE,FALSE,FALSE,FALSE,FALSE,FALSE,FALSE,Day,Day,Day,Day,0.169766322
A-24393,MapQuest,201,3,10/14/2016 11:01,10/14/2016 11:45,38.701572,-121.316208,,,0.01,Accident on I-80 Westbound in Sacramento.,,I-80 W,R,Citrus Heights,Sacramento,CA,95621,US,US/Pacific,KMCC,10/14/2016 10:55,62.6,,82,29.96,3,SSE,11.5,,Light Rain,FALSE,FALSE,FALSE,FALSE,TRUE,FALSE,FALSE,FALSE,FALSE,FALSE,FALSE,FALSE,FALSE,Day,Day,Day,Day,0.202086475
A-17810,MapQuest,201,2,11/20/2016 13:57,11/20/2016 14:27,37.819035,-122.204979,,,0.01,Accident on CA-13 Warren Fwy Northbound at Exit 3 Mountain Blvd.,,Warren Fwy N,R,Oakland,Alameda,CA,94611,US,US/Pacific,KOAK,11/20/2016 13:53,60.1,,93,29.93,7,Calm,,0,Light Rain,FALSE,FALSE,FALSE,FALSE,TRUE,FALSE,FALSE,FALSE,FALSE,FALSE,FALSE,FALSE,FALSE,Day,Day,Day,Day,0.552029934
A-23277,MapQuest,201,3,10/5/2016 13:50,10/5/2016 14:19,37.656654,-121.901588,,,0,Shoulder blocked on entry ramp due to accident on I-680 Southbound at Exit 26 Bernal Ave.,,I-680 S,R,Pleasanton,Alameda,CA,94566,US,US/Pacific,KLVK,10/5/2016 13:53,73.9,,27,30.03,10,NNW,9.2,,Clear,FALSE,FALSE,FALSE,FALSE,FALSE,FALSE,FALSE,FALSE,FALSE,FALSE,FALSE,FALSE,FALSE,Day,Day,Day,Day,0.364273174
A-24488,MapQuest,241,3,10/14/2016 16:21,10/14/2016 17:00,37.691124,-122.069839,,,0.01,Lane blocked due to accident on I-580 Westbound at Exit 36 Redwood Rd.,,I-580 W,R,Castro Valley,Alameda,CA,94546,US,US/Pacific,KHWD,10/14/2016 15:54,63,,87,29.97,1,WNW,9.2,0.14,Light Rain,FALSE,FALSE,FALSE,FALSE,FALSE,FALSE,FALSE,FALSE,FALSE,FALSE,FALSE,FALSE,FALSE,Day,Day,Day,Day,0.315038789
A-10352,MapQuest,201,2,1/8/2017 17:24,1/8/2017 17:53,37.976112,-121.741966,,,0.01,Right hand shoulder blocked due to accident on CA-4 Westbound at Exit 31 Laurel Rd.,,CA-4 W,R,Antioch,Contra Costa,CA,94531,US,US/Pacific,KCCR,1/8/2017 17:38,61,,83,29.85,2.5,SSW,17.3,0.04,Light Rain,FALSE,FALSE,FALSE,FALSE,FALSE,FALSE,FALSE,FALSE,FALSE,FALSE,FALSE,FALSE,FALSE,Night,Day,Day,Day,0.327863959
A-30234,MapQuest,201,2,9/6/2016 20:54,9/6/2016 22:09,38.603001,-121.36451,,,0,Accident on Eastern Ave at Cottage Way.,4201,Cottage Way,L,Sacramento,Sacramento,CA,95864,US,US/Pacific,KMHR,9/6/2016 20:55,77,,24,29.8,10,Calm,,,Clear,FALSE,FALSE,FALSE,FALSE,FALSE,FALSE,FALSE,FALSE,FALSE,FALSE,FALSE,FALSE,FALSE,Night,Night,Night,Day,0.322325219
A-30643,MapQuest,201,2,9/8/2016 16:47,9/8/2016 17:20,36.525433,-121.465927,,,0,Accident on Old Stage Rd at Associated Ln.,28733,Associated Ln,L,Gonzales,Monterey,CA,93926,US,US/Pacific,KSNS,9/8/2016 16:53,66,,68,30.07,10,West,12.7,,Clear,FALSE,FALSE,FALSE,FALSE,FALSE,FALSE,FALSE,FALSE,FALSE,FALSE,FALSE,FALSE,FALSE,Day,Day,Day,Day,0.446717033
A-29239,MapQuest,201,3,8/30/2016 10:40,8/30/2016 11:25,37.942604,-122.477715,,,0,Accident on I-580 Westbound at San Quentin.,,I-580 W,R,San Rafael,Marin,CA,94901,US,US/Pacific,KDVO,8/30/2016 10:35,71.6,,53,30,10,Calm,,,Clear,FALSE,FALSE,FALSE,FALSE,TRUE,FALSE,FALSE,FALSE,FALSE,FALSE,FALSE,FALSE,FALSE,Day,Day,Day,Day,0.26419278
A-18025,MapQuest,201,3,11/21/2016 19:12,11/21/2016 19:42,37.714737,-121.710014,,,0.01,Accident on I-580 Eastbound at Exit 57 Greenville Rd. On the median.,,I-580 E,R,Livermore,Alameda,CA,94551,US,US/Pacific,KLVK,11/21/2016 18:53,54,,80,30.11,10,SSE,4.6,,Mostly Cloudy,FALSE,FALSE,FALSE,FALSE,FALSE,FALSE,FALSE,FALSE,FALSE,FALSE,FALSE,FALSE,FALSE,Night,Night,Night,Night,0.561013189
A-824,MapQuest,201,2,6/21/2016 23:46,6/22/2016 0:31,38.714298,-121.540237,,,0,Accident on CA-99 El Centro Blvd Southbound at Exit 309 Elverta Rd.,,W Elverta Rd,R,Sacramento,Sacramento,CA,95836,US,US/Pacific,KSMF,6/21/2016 23:53,71.1,,41,29.87,10,SE,9.2,,Clear,FALSE,FALSE,FALSE,FALSE,FALSE,FALSE,FALSE,FALSE,FALSE,FALSE,FALSE,FALSE,FALSE,Night,Night,Night,Night,0.999099509
A-927,MapQuest,201,2,6/22/2016 17:44,6/22/2016 18:29,37.570854,-122.032478,,,0,Accident on Fremont Blvd Northbound at Decoto Rd.,,Fremont Blvd,R,Fremont,Alameda,CA,94555,US,US/Pacific,KHWD,6/22/2016 17:54,63,,63,30.02,10,West,9.2,,Clear,FALSE,FALSE,FALSE,FALSE,FALSE,FALSE,FALSE,FALSE,FALSE,FALSE,FALSE,TRUE,FALSE,Day,Day,Day,Day,0.960087718
A-16275,MapQuest,241,3,11/10/2016 22:40,11/10/2016 23:09,37.401531,-121.908859,,,0.01,#3 lane blocked due to accident on I-880 Southbound before Exit 7 County Hwy-G4 Montague Expy.,,Montague Expy,R,San Jose,Santa Clara,CA,95131,US,US/Pacific,KSJC,11/10/2016 22:53,63,,75,30.05,10,Calm,,,Partly Cloudy,FALSE,FALSE,FALSE,FALSE,FALSE,FALSE,FALSE,FALSE,FALSE,FALSE,FALSE,FALSE,FALSE,Night,Night,Night,Night,0.639997543
A-26753,MapQuest,247,2,8/11/2016 10:36,8/11/2016 11:06,38.088726,-122.555283,,,0,Delays due to accident on US-101 Redwood Hwy Northbound at Exit 462A Rowland Blvd.,,Redwood Hwy S,R,Novato,Marin,CA,94947,US,US/Pacific,KDVO,8/11/2016 10:35,62.6,,72,30.03,10,North,,,Clear,FALSE,FALSE,FALSE,FALSE,TRUE,FALSE,FALSE,FALSE,FALSE,FALSE,FALSE,FALSE,FALSE,Day,Day,Day,Day,0.938267974
A-26581,MapQuest,241,2,8/10/2016 12:59,8/10/2016 13:29,38.657677,-122.832161,,,0,One lane blocked and delays due to accident on Alexander Valley Rd at Soda Rock Ln.,2412,Alexander Valley Rd,R,Healdsburg,Sonoma,CA,95448,US,US/Pacific,KSTS,8/10/2016 12:53,73.9,,50,29.87,10,South,9.2,,Clear,FALSE,FALSE,FALSE,FALSE,FALSE,FALSE,FALSE,FALSE,FALSE,FALSE,FALSE,FALSE,FALSE,Day,Day,Day,Day,0.234542518
A-193,MapQuest,201,3,2/16/2016 8:42,2/16/2016 9:12,40.057369,-82.903717,,,0.01,Accident on I-270 Outerbelt Northbound at Exit 32 Morse Rd. Expect delays.,,Outerbelt S,R,Columbus,Franklin,OH,43230,US,US/Eastern,KCMH,2/16/2016 8:51,32,24.8,88,29.78,4,NW,8.1,,Overcast,FALSE,FALSE,FALSE,FALSE,FALSE,FALSE,FALSE,FALSE,FALSE,FALSE,FALSE,FALSE,FALSE,Day,Day,Day,Day,0.942866537
A-3004,MapQuest,201,2,7/14/2016 10:31,7/14/2016 11:16,38.014099,-121.996925,,,0,#3 lane blocked due to accident on CA-4 Westbound at Exit 17 Willow Pass Rd.,,CA-4 W,R,Concord,Contra Costa,CA,94520,US,US/Pacific,KCCR,7/14/2016 10:53,82.9,,37,29.92,10,NNW,6.9,,Clear,FALSE,FALSE,FALSE,FALSE,FALSE,FALSE,FALSE,FALSE,FALSE,FALSE,FALSE,FALSE,FALSE,Day,Day,Day,Day,0.15350957
A-28163,MapQuest,201,2,8/21/2016 17:10,8/21/2016 17:55,38.627972,-121.266029,,,0,Right hand shoulder blocked due to accident on County Hwy-E2 Sunrise Blvd at Gold Country Blvd.,,Gold Country Blvd,R,Rancho Cordova,Sacramento,CA,95670,US,US/Pacific,KMHR,8/21/2016 16:53,89.6,,18,29.79,10,SW,12.7,,Clear,FALSE,FALSE,FALSE,FALSE,FALSE,FALSE,FALSE,FALSE,FALSE,FALSE,FALSE,FALSE,FALSE,Day,Day,Day,Day,0.418305542
A-23141,MapQuest,241,3,10/5/2016 3:47,10/5/2016 4:32,37.808498,-122.366852,,,0,Lane blocked due to accident on I-80 Eastbound at Exit 4A Treasure Is.,,San Francisco-Oakland Bay Brg E,R,San Francisco,San Francisco,CA,94130,US,US/Pacific,KOAK,10/5/2016 3:53,53.1,,86,30.02,10,ENE,3.5,,Clear,FALSE,FALSE,FALSE,FALSE,FALSE,FALSE,FALSE,FALSE,FALSE,FALSE,FALSE,FALSE,FALSE,Night,Night,Night,Night,0.218734826
A-5880,MapQuest,201,2,12/6/2016 16:08,12/6/2016 16:38,38.593048,-121.401489,,,0.01,Accident on Fulton Ave near Wittkop Way.,1552,Fulton Ave,R,Sacramento,Sacramento,CA,95825-5161,US,US/Pacific,KMCC,12/6/2016 16:15,50,,58,30.08,10,East,5.8,,Clear,FALSE,FALSE,FALSE,FALSE,FALSE,FALSE,FALSE,FALSE,FALSE,FALSE,FALSE,FALSE,FALSE,Day,Day,Day,Day,0.43390551
A-29331,MapQuest,201,2,8/30/2016 17:42,8/30/2016 18:57,38.663364,-121.364418,,,0,Accident on Hillsdale Blvd at Frizell Ave.,,Frizell Ave,R,Sacramento,Sacramento,CA,95842,US,US/Pacific,KMCC,8/30/2016 17:50,91.4,,15,29.85,9,SW,3.5,,Clear,FALSE,FALSE,FALSE,FALSE,FALSE,FALSE,FALSE,FALSE,FALSE,FALSE,FALSE,FALSE,FALSE,Day,Day,Day,Day,0.139302602
A-4950,MapQuest,201,2,7/31/2016 22:05,7/31/2016 22:35,37.421124,-122.092476,,,0,Accident on US-101 Southbound at Exits 400A 400B Rengstorff Ave. Expect delays.,,US-101 N,R,Mountain View,Santa Clara,CA,94043,US,US/Pacific,KNUQ,7/31/2016 21:56,63,,81,29.93,10,North,9.2,,Partly Cloudy,FALSE,FALSE,FALSE,FALSE,TRUE,FALSE,FALSE,FALSE,FALSE,FALSE,FALSE,FALSE,FALSE,Night,Night,Night,Night,0.137158201
A-18806,MapQuest,201,2,11/25/2016 22:46,11/25/2016 23:30,38.663918,-121.225723,,,0.01,Accident on Madison Ave at County Hwy-E3 Hazel Ave.,,Hazel Ave,R,Fair Oaks,Sacramento,CA,95628,US,US/Pacific,KMHR,11/25/2016 22:45,46.4,,93,29.95,6,Calm,,,Clear,FALSE,FALSE,FALSE,FALSE,FALSE,FALSE,FALSE,FALSE,FALSE,FALSE,FALSE,FALSE,FALSE,Night,Night,Night,Night,0.013098539
A-25685,MapQuest,201,2,8/2/2016 14:00,8/2/2016 14:30,36.999226,-121.525116,,,0,Accident on Frazier Lake Rd at CA-152 Pacheco Pass Hwy.,2099,Pacheco Pass Hwy,R,Gilroy,Santa Clara,CA,95020-9582,US,US/Pacific,KE16,8/2/2016 13:55,82.4,,37,29.99,10,SE,5.8,,Clear,FALSE,FALSE,FALSE,FALSE,FALSE,FALSE,FALSE,FALSE,FALSE,FALSE,FALSE,TRUE,FALSE,Day,Day,Day,Day,0.004273986
A-23976,MapQuest,201,2,10/11/2016 10:52,10/11/2016 11:52,38.558609,-121.379501,,,0,Right hand shoulder blocked due to accident on US-50 at Exit 11 Watt Ave.,,S Watt Ave,R,Sacramento,Sacramento,CA,95826,US,US/Pacific,KMHR,10/11/2016 10:55,66.2,,52,30.05,10,North,,,Clear,FALSE,FALSE,FALSE,FALSE,FALSE,FALSE,FALSE,FALSE,FALSE,FALSE,FALSE,FALSE,FALSE,Day,Day,Day,Day,0.54306178
A-33115,MapQuest,201,2,4/5/2016 15:47,4/5/2016 17:02,38.474407,-121.419067,,,0,Accident on Stockton Blvd at Elsie Ave.,,Stockton Blvd,R,Sacramento,Sacramento,CA,95823,US,US/Pacific,KSAC,4/5/2016 15:53,80.1,,25,30.1,10,North,11.5,,Clear,FALSE,FALSE,FALSE,FALSE,FALSE,FALSE,FALSE,FALSE,FALSE,FALSE,FALSE,FALSE,FALSE,Day,Day,Day,Day,0.553864766
A-22013,MapQuest,201,2,9/26/2016 18:24,9/26/2016 18:52,38.634266,-121.371719,,,0,Accident on Edison Ave at Becerra Way.,3961,Edison Ave,L,Sacramento,Sacramento,CA,95821-2824,US,US/Pacific,KMCC,9/26/2016 18:15,95,,12,29.9,10,Calm,,,Clear,FALSE,FALSE,FALSE,FALSE,FALSE,FALSE,FALSE,FALSE,FALSE,FALSE,FALSE,FALSE,FALSE,Day,Day,Day,Day,0.332469268
A-10622,MapQuest,201,3,1/10/2017 16:12,1/10/2017 16:42,37.789341,-122.25428,,,0.01,Right lane blocked due to accident on I-880 Northbound at Exit 40 Embarcadero.,,I-880 N,R,Oakland,Alameda,CA,94606,US,US/Pacific,KOAK,1/10/2017 15:53,59,,90,29.78,6,South,23,0.03,Light Rain,FALSE,FALSE,FALSE,FALSE,TRUE,FALSE,FALSE,FALSE,FALSE,FALSE,FALSE,FALSE,FALSE,Day,Day,Day,Day,0.712851471
A-22430,MapQuest,201,2,9/29/2016 9:38,9/29/2016 10:22,37.998268,-121.809647,,,0,#5 lane blocked due to accident on CA-4 Westbound after Exit 28 A St.,,CA-4 E,R,Antioch,Contra Costa,CA,94509,US,US/Pacific,KCCR,9/29/2016 9:53,64.9,,58,30.01,10,SSW,6.9,,Clear,FALSE,FALSE,FALSE,FALSE,FALSE,FALSE,FALSE,FALSE,FALSE,FALSE,FALSE,FALSE,FALSE,Day,Day,Day,Day,0.828171228
A-25255,MapQuest,241,2,10/18/2016 19:17,10/18/2016 19:47,37.404114,-122.069756,,,0.01,#1 lane blocked due to accident on CA-85 Northbound at Exit 24A Moffett Blvd.,,Norman Y Mineta Hwy,R,Mountain View,Santa Clara,CA,94043,US,US/Pacific,KNUQ,10/18/2016 18:56,64,,60,30.14,10,WNW,5.8,,Clear,FALSE,FALSE,FALSE,FALSE,FALSE,FALSE,FALSE,FALSE,FALSE,FALSE,FALSE,FALSE,FALSE,Night,Night,Day,Day,0.979014338
A-21490,MapQuest,245,2,9/22/2016 11:27,9/22/2016 11:57,38.409191,-121.38887,,,0,Two lanes blocked due to accident on CA-99 Northbound at Exit 286 Stockton Blvd.,,Elk Grove Blvd,R,Elk Grove,Sacramento,CA,95624,US,US/Pacific,KSAC,9/22/2016 11:53,66.9,,42,30.03,10,NW,9.2,,Clear,FALSE,FALSE,FALSE,FALSE,FALSE,FALSE,FALSE,FALSE,FALSE,FALSE,FALSE,FALSE,FALSE,Day,Day,Day,Day,0.713884548
A-39375,MapQuest,201,2,5/20/2016 21:08,5/20/2016 21:38,36.982925,-121.959595,,,0.01,Gore point obstructed due to accident on CA-1 Southbound at Exit 437 Porter St.,,State Highway 1,R,Capitola,Santa Cruz,CA,95010,US,US/Pacific,KWVI,5/20/2016 20:53,52,,83,29.96,10,SW,8.1,0,Light Rain,FALSE,FALSE,FALSE,FALSE,FALSE,FALSE,FALSE,FALSE,FALSE,FALSE,FALSE,FALSE,FALSE,Night,Night,Day,Day,0.388251637
A-28337,MapQuest,201,2,8/23/2016 8:32,8/23/2016 9:17,37.05938,-121.584366,,,0,Accident on US-101 Northbound after Exit 360 Masten Ave.,578,Masten Ave,R,Gilroy,Santa Clara,CA,95020,US,US/Pacific,KE16,8/23/2016 8:35,57.2,,94,30.09,10,SE,8.1,,Overcast,FALSE,FALSE,FALSE,FALSE,FALSE,FALSE,FALSE,FALSE,FALSE,FALSE,FALSE,FALSE,FALSE,Day,Day,Day,Day,0.586953793
A-24169,MapQuest,201,2,10/12/2016 19:32,10/12/2016 20:02,37.926449,-122.051041,,,0.01,Accident on Treat Blvd both ways at Cherry Ln.,,Cherry Ln,R,Walnut Creek,Contra Costa,CA,94598,US,US/Pacific,KCCR,10/12/2016 19:53,62.1,,60,30.01,10,SSW,9.2,,Clear,FALSE,FALSE,FALSE,FALSE,FALSE,FALSE,FALSE,FALSE,FALSE,FALSE,FALSE,TRUE,FALSE,Night,Night,Night,Day,0.956961487
A-6071,MapQuest,201,2,12/7/2016 19:59,12/7/2016 20:29,38.151455,-122.447617,,,0.01,Accident on CA-37 Sears Point Rd Eastbound at CA-121 Arnold Dr.,4012,Sears Point Rd,L,Sonoma,Sonoma,CA,95476,US,US/Pacific,KO69,12/7/2016 19:55,41,33.1,87,30.11,5,East,15,0.05,Overcast,FALSE,FALSE,TRUE,FALSE,FALSE,FALSE,TRUE,FALSE,FALSE,FALSE,FALSE,FALSE,FALSE,Night,Night,Night,Night,0.348723348
A-14078,MapQuest,201,2,10/30/2016 16:21,10/30/2016 16:51,38.563416,-121.341438,,,0.01,Accident on US-50 Eastbound at Exit 13 Bradshaw Rd.,,US-50 E,R,Sacramento,Sacramento,CA,95827,US,US/Pacific,KMHR,10/30/2016 14:45,64.4,,77,29.88,10,SSW,12.7,,Mostly Cloudy,FALSE,FALSE,FALSE,FALSE,FALSE,FALSE,FALSE,FALSE,FALSE,FALSE,FALSE,FALSE,FALSE,Day,Day,Day,Day,0.73921498
A-26305,MapQuest,247,2,8/8/2016 13:01,8/8/2016 13:31,37.634972,-122.086952,,,0,Delays due to accident on Tennyson Rd at I-880.,,Nimitz Fwy S,R,Hayward,Alameda,CA,94545,US,US/Pacific,KHWD,8/8/2016 12:54,72,,49,29.88,10,WNW,8.1,,Clear,FALSE,FALSE,FALSE,FALSE,TRUE,FALSE,FALSE,FALSE,FALSE,FALSE,FALSE,FALSE,FALSE,Day,Day,Day,Day,0.415791269
A-27477,MapQuest,244,2,8/16/2016 7:44,8/16/2016 8:29,38.941887,-121.112404,,,0,Shoulder blocked due to accident on Bell Rd near Deseret Dr.,3198,Deseret Dr,R,Auburn,Placer,CA,95603-7833,US,US/Pacific,KAUN,8/16/2016 7:35,73.4,,38,29.93,10,ESE,4.6,,Clear,FALSE,FALSE,FALSE,FALSE,FALSE,FALSE,FALSE,FALSE,FALSE,FALSE,FALSE,FALSE,FALSE,Day,Day,Day,Day,0.702147596
A-21682,MapQuest,201,2,9/23/2016 14:06,9/23/2016 14:36,38.657684,-121.382851,,,0,Accident on Watt Ave both ways at Roseville Rd.,,Roseville Rd,R,North Highlands,Sacramento,CA,95660,US,US/Pacific,KMCC,9/23/2016 14:15,78.8,,18,30.09,10,WNW,15,,Clear,FALSE,FALSE,TRUE,FALSE,FALSE,FALSE,FALSE,FALSE,FALSE,FALSE,FALSE,TRUE,FALSE,Day,Day,Day,Day,0.693895009
A-5702,MapQuest,241,3,12/5/2016 18:11,12/5/2016 18:41,37.489166,-121.943779,,,0.01,HOV lane blocked due to accident on I-880 Northbound at Exits 12 12A 12B CA-262 Mission Blvd.,,I-880 N,R,Fremont,Alameda,CA,94538,US,US/Pacific,KPAO,12/5/2016 17:47,51.8,,88,30.03,10,Calm,,,Scattered Clouds,FALSE,FALSE,FALSE,FALSE,FALSE,FALSE,FALSE,FALSE,FALSE,FALSE,FALSE,FALSE,FALSE,Night,Night,Night,Day,0.743741358
A-131,MapQuest,201,3,2/13/2016 11:05,2/13/2016 12:05,41.014015,-81.932777,,,0.01,Accident on I-71 Northbound in Westfield Center.,,I-71 N,R,Seville,Medina,OH,44273,US,US/Eastern,KBJJ,2/13/2016 10:56,8.1,-8.4,61,30.48,10,WNW,13.8,,Scattered Clouds,FALSE,FALSE,FALSE,FALSE,FALSE,FALSE,FALSE,FALSE,FALSE,FALSE,FALSE,FALSE,FALSE,Day,Day,Day,Day,0.67398742
A-8530,MapQuest,201,3,12/24/2016 15:26,12/24/2016 16:10,37.66637,-122.107491,,,0.01,Accident on I-880 Northbound near Exit 29 A St.,,I-880 N,R,Hayward,Alameda,CA,94541,US,US/Pacific,KHWD,12/24/2016 15:54,52,,47,29.92,10,WNW,10.4,,Partly Cloudy,FALSE,FALSE,TRUE,FALSE,FALSE,FALSE,FALSE,FALSE,FALSE,FALSE,FALSE,TRUE,FALSE,Day,Day,Day,Day,0.758202447
A-16126,MapQuest,201,2,11/10/2016 11:07,11/10/2016 11:36,38.316666,-122.307266,,,0.01,Accident on CA-29 Northbound at Exit 19 Redwood Rd. On exit ramp.,,CA-29 N,R,Napa,Napa,CA,94558,US,US/Pacific,KAPC,11/10/2016 10:54,70,,63,30.03,10,East,6.9,,Clear,FALSE,FALSE,FALSE,FALSE,TRUE,FALSE,FALSE,FALSE,FALSE,FALSE,FALSE,FALSE,FALSE,Day,Day,Day,Day,0.382670108
A-23398,MapQuest,241,3,10/6/2016 12:04,10/6/2016 13:04,37.560558,-122.041054,,,0,Lane blocked due to accident on I-880 Southbound at Exit 21 Decoto Rd.,,CA-84 E,R,Newark,Alameda,CA,94560,US,US/Pacific,KPAO,10/6/2016 11:47,73.4,,38,30.07,10,NNW,8.1,,Clear,FALSE,FALSE,FALSE,FALSE,FALSE,FALSE,FALSE,FALSE,FALSE,FALSE,FALSE,FALSE,FALSE,Day,Day,Day,Day,0.976009898
A-37558,MapQuest,201,3,5/5/2016 11:56,5/5/2016 12:26,37.850609,-122.02861,,,0.01,Accident on I-680 Northbound at Exits 42A 42B Stone Valley Rd.,,I-680 N,R,Alamo,Contra Costa,CA,94507,US,US/Pacific,KCCR,5/5/2016 11:53,64,,60,29.82,10,West,8.1,0,Overcast,FALSE,FALSE,FALSE,FALSE,FALSE,FALSE,FALSE,FALSE,FALSE,FALSE,FALSE,FALSE,FALSE,Day,Day,Day,Day,0.78701974
A-21801,MapQuest,201,2,9/24/2016 15:17,9/24/2016 16:02,38.256023,-122.682594,,,0,Accident on Skillman Ln at Thompson Ln.,2225,Skillman Ln,R,Petaluma,Sonoma,CA,94952-6442,US,US/Pacific,KO69,9/24/2016 15:15,84.2,,,30.08,10,WNW,11.5,,Clear,FALSE,FALSE,FALSE,FALSE,FALSE,FALSE,FALSE,FALSE,FALSE,FALSE,FALSE,FALSE,FALSE,Day,Day,Day,Day,0.182800185
A-22240,MapQuest,201,2,9/28/2016 8:31,9/28/2016 9:15,37.145508,-121.98497,,,0,Accident on CA-17 Santa Cruz Hwy Northbound before CA-35 Summit Rd.,,Santa Cruz Hwy,R,Los Gatos,Santa Clara,CA,95033,US,US/Pacific,KSJC,9/28/2016 8:53,64.9,,73,29.9,10,Calm,,,Partly Cloudy,FALSE,FALSE,FALSE,FALSE,FALSE,FALSE,FALSE,FALSE,FALSE,FALSE,FALSE,FALSE,FALSE,Day,Day,Day,Day,0.694478778
A-32939,MapQuest,203,2,4/4/2016 16:34,4/4/2016 17:49,38.267426,-121.301453,,,0,Multi-vehicle accident on CA-99 Southbound at Exit 275B County Hwy-J10 Lincoln Way.,,CA-99 S,R,Galt,Sacramento,CA,95632,US,US/Pacific,KSAC,4/4/2016 16:53,77,,37,30.15,10,Variable,5.8,,Clear,FALSE,FALSE,FALSE,FALSE,FALSE,FALSE,FALSE,FALSE,FALSE,FALSE,FALSE,FALSE,FALSE,Day,Day,Day,Day,0.742845585
A-6945,MapQuest,201,2,12/13/2016 11:02,12/13/2016 11:31,38.811741,-121.300392,,,0.01,Accident on CA-65 Southbound at Exit 311 Sunset Blvd.,,CA-65 S,R,Rocklin,Placer,CA,95765,US,US/Pacific,KLHM,12/13/2016 10:55,50,,82,30.16,10,SSE,4.6,,Mostly Cloudy,FALSE,FALSE,FALSE,FALSE,FALSE,FALSE,FALSE,FALSE,FALSE,FALSE,FALSE,FALSE,FALSE,Day,Day,Day,Day,0.498379148
A-427,MapQuest,201,2,3/1/2016 6:14,3/1/2016 6:44,39.591389,-84.229485,,,0.01,Accident on OH-741 Springboro Pike at Tech Blvd. Expect delays.,10654,Springboro Pike,L,Miamisburg,Montgomery,OH,45342-4940,US,US/Eastern,KMGY,3/1/2016 5:53,37.9,32.1,68,29.92,10,SSE,8.1,,Clear,FALSE,FALSE,TRUE,FALSE,FALSE,FALSE,FALSE,FALSE,FALSE,FALSE,FALSE,FALSE,FALSE,Night,Night,Day,Day,0.251162268
A-29879,MapQuest,201,3,9/3/2016 21:12,9/3/2016 22:12,37.491714,-121.919075,,,0,Right hand shoulder blocked due to accident on I-680 Northbound at Exit 12 CA-262 Mission Blvd.,,I-680 N,R,Fremont,Alameda,CA,94539,US,US/Pacific,KNUQ,9/3/2016 20:56,63,,56,29.85,10,West,5.8,,Clear,FALSE,FALSE,FALSE,FALSE,FALSE,FALSE,FALSE,FALSE,FALSE,FALSE,FALSE,FALSE,FALSE,Night,Night,Night,Night,0.424520341
A-23405,MapQuest,201,2,10/6/2016 12:16,10/6/2016 13:16,37.646355,-122.093033,,,0,Accident on I-880 Southbound at Exit 27 CA-92 Jackson St.,,W Jackson St,R,Hayward,Alameda,CA,94544,US,US/Pacific,KHWD,10/6/2016 11:54,69.1,,47,30.1,10,West,6.9,,Clear,FALSE,FALSE,FALSE,FALSE,FALSE,FALSE,FALSE,FALSE,FALSE,FALSE,FALSE,FALSE,FALSE,Day,Day,Day,Day,0.606002779
A-12165,MapQuest,201,2,1/21/2017 21:43,1/21/2017 22:28,38.703869,-121.363655,,,0.01,Accident on Antelope Rd Eastbound at Walerga Rd.,4327,Antelope Rd,L,Antelope,Sacramento,CA,95843-6022,US,US/Pacific,KMCC,1/21/2017 21:50,48.2,,87,29.87,5,SE,18.4,,Light Rain,FALSE,FALSE,TRUE,FALSE,FALSE,FALSE,FALSE,FALSE,FALSE,FALSE,FALSE,TRUE,FALSE,Night,Night,Night,Night,0.199760559
A-33221,MapQuest,241,2,4/6/2016 3:53,4/6/2016 4:53,37.255756,-121.875954,,,0,Lane blocked due to accident on CA-85 Southbound at Exit 6 Almaden Plaza Way.,,Almaden Expy,R,San Jose,Santa Clara,CA,95118,US,US/Pacific,KRHV,4/6/2016 6:47,51.8,,71,30.14,10,Calm,,,Clear,FALSE,FALSE,FALSE,FALSE,FALSE,FALSE,FALSE,FALSE,FALSE,FALSE,FALSE,FALSE,FALSE,Night,Night,Night,Night,0.395156619
A-35543,MapQuest,201,3,4/21/2016 12:58,4/21/2016 13:28,37.775387,-122.234024,,,0.01,Accident on I-880 Southbound at Exit 39A Elmwood Ave.,,I-880 N,R,Oakland,Alameda,CA,94601,US,US/Pacific,KOAK,4/21/2016 12:53,71.1,,53,29.9,10,WSW,10.4,,Mostly Cloudy,FALSE,FALSE,FALSE,FALSE,FALSE,FALSE,FALSE,FALSE,FALSE,FALSE,FALSE,FALSE,FALSE,Day,Day,Day,Day,0.448268614
A-9933,MapQuest,201,2,1/6/2017 10:39,1/6/2017 11:08,36.666962,-121.756935,,,0.01,Accident on County Hwy-G17 Reservation Rd Eastbound at Blanco Rd.,1092,Reservation Rd,R,Marina,Monterey,CA,93933,US,US/Pacific,KMRY,1/6/2017 10:54,46,44.8,71,30.14,10,WSW,3.5,,Clear,FALSE,FALSE,FALSE,FALSE,FALSE,FALSE,FALSE,FALSE,FALSE,FALSE,FALSE,FALSE,FALSE,Day,Day,Day,Day,0.179729452
A-13936,MapQuest,201,2,10/29/2016 18:55,10/29/2016 19:39,38.47427,-121.422974,,,0.01,Accident on Mack Rd at CA-99.,,CA-99 S,R,Sacramento,Sacramento,CA,95823,US,US/Pacific,KSAC,10/29/2016 18:53,64,,87,29.91,8,West,5.8,,Clear,FALSE,FALSE,FALSE,FALSE,FALSE,FALSE,FALSE,FALSE,FALSE,FALSE,FALSE,FALSE,FALSE,Night,Night,Day,Day,0.975480424
